lat,lon,sys_time,time,pitch,roll,yaw,pitch_rate,roll_rate,yaw_rate,airspeed,altitude,ground_speed,heading,roll_rate_setpoint,roll_setpoint,pitch_rate_setpoint,pitch_setpoint,throttle_setpoint,roll_kd,roll_kp,pitch_kd,pitch_kp,yaw_kd,yaw_kp,path_checksum,last_command_sent0,last_command_sent1,last_command_sent2,last_command_sent3,internal_battery_voltage,external_battery_voltage,ch1in,ch2in,ch3in,ch4in,ch5in,ch6in,ch7in,ch8in,ch1out,ch2out,ch3out,ch4out,ch5out,ch6out,ch7out,ch8out,camera_status,yaw_rate_setpoint,heading_setpoint,altitude_setpoint,flap_setpoint,wireless_connection,autopilot_active,gps_status,waypoint_count,waypoint_index,path_following,roll_ki,pitch_ki,yaw_ki,heading_kd,heading_kp,heading_ki,altitude_kd,altitude_kp,altitude_ki,throttle_kd,throttle_kp,throttle_ki,flap_kd,flap_kp,flap_ki,path_gain,orbit_gain,autonomousLevel,startup_error_codes,startupSettings,probe_status,RSSI
43.53075333,-80.57742833,442326,211838.5,-2.30023694,0.973017514,-40.64306641,0.203863055,-0.406572759,-0.071733572,-0.900000036,0.8125,0,19,0,0,0,0,-1024, , ,-100,,,,,,,,,,,,,,,,,,,,,,,,,,,,,,,,,,,,,,,,,,,,,,,,,,,,,,,,,,,
43.53075333,-80.57742833,442326,211838.5,-5.045110226,0.751724601,-42.03500366,0.516694665,-0.104693398,0.026949959,-0.900000036,0.8125,0,19,0,0,0,0,-1024,3,4.800000191,3.5,1.600000024,3.5,1,0,1,0,0,0,2857,4500,-3072,-3072,-3072,-3072,-3072,-3072,-3072,-3072,0,0,-1024,0,0,0,0,0,0,0,0,0,-1024,2,1,42,0,74,0, ,40,,,,,,,,,,,,,,,,,,,,
43.53075333,-80.57742833,442326,211838.5,-3.263501883,-0.237381533,-44.17004013,-0.499132127,0.651271641,-0.213664636,-0.900000036,0.8125,0,19,0,0,0,0,-1024,3,4.800000191,3.5,1.600000024,3.5,1,0,1,0,0,0,2857,4500,-3072,-3072,-3072,-3072,-3072,-3072,-3072,-3072,0,0,-1024,0,0,0,0,0,0,0,0,0,-1024,2,1,42,0,74,0,0,0,0,5,2,0,0,1.5,0,0,1,0,0,1,0,0.01,1,0,3,0,0,40
43.53075333,-80.57742833,443685,211839.9063,-4.005574703,3.507876396,-46.93456268,0.707017064,-0.050625276,-0.164796814,-1.695007443,0.8125,0,19,0,0,0,0,-1024,3,4.800000191,3.5,1.600000024,3.5,1,0,1,0,0,0,2857,4500,-3072,-3072,-3072,-3072,-3072,-3072,-3072,-3072,0,0,-1024,0,0,0,0,0,0,0,0,0,-1024,2,1,42,0,74,0,0,0,0,5,2,0,0,1.5,0,0,1,0,0,1,0,0.01,1,0,3,0,0,40
43.53075333,-80.57742833,443685,211839.9063,-6.386664867,1.28836143,-49.11597824,-0.229480684,0.372406632,-0.204599664,-1.695007443,0.625,0,19,0,0,0,0,-1024,3,4.800000191,3.5,1.600000024,3.5,1,0,1,0,0,0,2857,4500,-3072,-3072,-3072,-3072,-3072,-3072,-3072,-3072,0,0,-1024,0,0,0,0,0,0,0,0,0,-1024,2,1,42,0,74,0,0,0,0,5,2,0,0,1.5,0,0,1,0,0,1,0,0.01,1,0,3,0,0,40
43.53075333,-80.57742833,443685,211839.9063,-7.872587681,2.533299208,-49.23162079,0.229693443,-0.507291615,0.244965836,-1.695007443,0.625,0,19,0,0,0,0,-1024,3,4.800000191,3.5,1.600000024,3.5,1,0,1,0,0,0,2857,4500,-3072,-3072,-3072,-3072,-3072,-3072,-3072,-3072,0,0,-1024,0,0,0,0,0,0,0,0,0,-1024,2,1,42,0,74,0,0,0,0,5,2,0,0,1.5,0,0,1,0,0,1,0,0.01,1,0,3,0,0,40
43.53075333,-80.57742833,445043,211841.2969,-3.467475176,0.212606028,-44.84078979,0.078645602,-0.304279804,0.153013766,-0.600000024,0.625,0,19,0,0,0,0,-1024,3,4.800000191,3.5,1.600000024,3.5,1,0,1,0,0,0,2857,4500,-3072,-3072,-3072,-3072,-3072,-3072,-3072,-3072,0,0,-1024,0,0,0,0,0,0,0,0,0,-1024,2,1,42,0,74,0,0,0,0,5,2,0,0,1.5,0,0,1,0,0,1,0,0.01,1,0,3,0,0,40
43.53076,-80.57733667,445043,211841.2969,-3.029282331,-2.572804928,-40.50793839,-0.221897468,0.546546638,0.229139224,-0.600000024,0.625,3.402777672,280,0,0,0,0,-1024,3,4.800000191,3.5,1.600000024,3.5,1,0,1,0,0,0,2857,4500,-3072,-3072,-3072,-3072,-3072,-3072,-3072,-3072,0,0,-1024,0,0,0,0,0,0,0,0,0,-1024,2,1,42,0,74,0,0,0,0,5,2,0,0,1.5,0,0,1,0,0,1,0,0.01,1,0,3,0,0,40
43.53076167,-80.577355,445043,211841.2969,-6.974345684,-2.4636693,-39.67319107,-0.368468225,-0.199516147,-0.123233929,-0.600000024,0.625,3.875,281,0,0,0,0,-1024,3,4.800000191,3.5,1.600000024,3.5,1,0,1,0,0,0,2857,4500,-3072,-3072,-3072,-3072,-3072,-3072,-3072,-3072,0,0,-1024,0,0,0,0,0,0,0,0,0,-1024,2,1,42,0,74,0,0,0,0,5,2,0,0,1.5,0,0,1,0,0,1,0,0.01,1,0,3,0,0,40
43.53076333,-80.57736333,446401,211842.7031,-3.251573086,1.269459009,-44.49461746,0.99328053,0.615509391,-0.434174508,-0.600000024,0.1875,4.963889122,283,0,0,0,0,-1024,3,4.800000191,3.5,1.600000024,3.5,1,0,1,0,0,0,2857,4500,-3072,-3072,-3072,-3072,-3072,-3072,-3072,-3072,0,0,-1024,0,0,0,0,0,0,0,0,0,-1024,2,1,42,0,74,0,0,0,0,5,2,0,0,1.5,0,0,1,0,0,1,0,0.01,1,0,3,0,0,40
43.53076667,-80.57737333,446401,211842.7031,7.690066814,0.12017525,-48.46437073,1.30801332,-0.329092234,-0.126147002,-0.600000024,0.1875,6.841666698,284,0,0,0,0,-1024,3,4.800000191,3.5,1.600000024,3.5,1,0,1,0,0,0,2857,4500,-3072,-3072,-3072,-3072,-3072,-3072,-3072,-3072,0,0,-1024,0,0,0,0,0,0,0,0,0,-1024,2,1,42,0,74,0,0,0,0,5,2,0,0,1.5,0,0,1,0,0,1,0,0.01,1,0,3,0,0,40
43.53077333,-80.577395,446401,211842.7031,18.56490326,-7.821169853,-49.74285126,0.595307827,-1.21212554,0.049868964,-0.600000024,0.1875,8.119444847,286,0,0,0,0,-1024,3,4.800000191,3.5,1.600000024,3.5,1,0,1,0,0,0,2857,4500,-3072,-3072,-3072,-3072,-3072,-3072,-3072,-3072,0,0,-1024,0,0,0,0,0,0,0,0,0,-1024,2,1,42,0,74,0,0,0,0,5,2,0,0,1.5,0,0,1,0,0,1,0,0.01,1,0,3,0,0,40
43.53077833,-80.57741333,447759,211844.0938,14.05180836,-25.75011826,-48.58073044,-0.873005271,-0.911408186,0.081612982,-0.645007372,0.1875,9.072221756,288,0,0,0,0,-1024,3,4.800000191,3.5,1.600000024,3.5,1,0,1,0,0,0,2857,4500,-3072,-3072,-3072,-3072,-3072,-3072,-3072,-3072,0,0,-1024,0,0,0,0,0,0,0,0,0,-1024,2,1,42,0,74,0,0,0,0,5,2,0,0,1.5,0,0,1,0,0,1,0,0.01,1,0,3,0,0,40
43.53078833,-80.57744333,447759,211844.0938,5.844875813,-20.90633774,-45.19937515,-0.207263052,1.264591217,-0.16277279,-0.645007372,0.125,9.511111259,291,0,0,0,0,-1024,3,4.800000191,3.5,1.600000024,3.5,1,0,1,0,0,0,2857,4500,-3072,-3072,-3072,-3072,-3072,-3072,-3072,-3072,0,0,-1024,0,0,0,0,0,0,0,0,0,-1024,2,1,41,0,74,0,0,0,0,5,2,0,0,1.5,0,0,1,0,0,1,0,0.01,1,0,3,0,0,40
43.530795,-80.577465,447759,211844.0938,9.913425446,-4.591242313,-50.85954666,0.847465456,0.926450729,-0.529689491,-0.645007372,0.125,10.11111069,293,0,0,0,0,-1024,3,4.800000191,3.5,1.600000024,3.5,1,0,1,0,0,0,2857,4500,-3072,-3072,-3072,-3072,-3072,-3072,-3072,-3072,0,0,-1024,0,0,0,0,0,0,0,0,0,-1024,2,1,41,0,74,0,0,0,0,5,2,0,0,1.5,0,0,1,0,0,1,0,0.01,1,0,3,0,0,40
43.53080167,-80.57749833,449117,211845.5,20.18628693,0.356775373,-57.56591797,0.43293047,0.158807442,-0.438209295,-0.734985352,0.125,10.51666641,291,0,0,0,0,-1024,3,4.800000191,3.5,1.600000024,3.5,1,0,1,0,0,0,2857,4500,-3072,-3072,-3072,-3072,-3072,-3072,-3072,-3072,0,0,-1024,0,0,0,0,0,0,0,0,0,-1024,2,1,41,0,74,0,0,0,0,5,2,0,0,1.5,0,0,1,0,0,1,0,0.01,1,0,3,0,0,40
43.53081167,-80.57752167,449117,211845.5,22.31149483,4.571837902,-59.76147461,-0.12891075,0.330430746,-0.084994316,-0.734985352,0.125,10.95833302,288,0,0,0,0,-1024,3,4.800000191,3.5,1.600000024,3.5,1,0,1,0,0,0,2857,4500,-3072,-3072,-3072,-3072,-3072,-3072,-3072,-3072,0,0,-1024,0,0,0,0,0,0,0,0,0,-1024,2,1,42,0,74,0,0,0,0,5,2,0,0,1.5,0,0,1,0,0,1,0,0.01,1,0,3,0,0,40
43.53081833,-80.57754833,449117,211845.5,22.6825676,8.427742004,-58.49092865,0.076867804,0.277342975,0.253974915,-0.734985352,3.5,11.18888855,285,0,0,0,0,-1024,3,4.800000191,3.5,1.600000024,3.5,1,0,1,0,0,0,2857,4500,-3072,-3072,-3072,-3072,-3072,-3072,-3072,-3072,0,0,-1024,0,0,0,0,0,0,0,0,0,-1024,2,1,42,0,74,0,0,0,0,5,2,0,0,1.5,0,0,1,0,0,1,0,0.01,1,0,3,0,0,40
43.53082333,-80.577575,450476,211846.9063,21.79503441,13.78759575,-55.36893082,0.059831545,0.316420376,0.197528273,-0.795007348,3.5,10.9416666,285,0,0,0,0,-1024,3,4.800000191,3.5,1.600000024,3.5,1,0,1,0,0,0,2857,4500,-3072,-3072,-3072,-3072,-3072,-3072,-3072,-3072,0,0,-1024,0,0,0,0,0,0,0,0,0,-1024,2,1,42,0,74,0,0,0,0,5,2,0,0,1.5,0,0,1,0,0,1,0,0.01,1,0,3,0,0,40
43.53083167,-80.57761333,450476,211846.9063,20.31632996,17.27250671,-52.90127945,-0.101068392,0.195552886,0.255668938,-0.795007348,3.5,10.82499981,286,0,0,0,0,-1024,3,4.800000191,3.5,1.600000024,3.5,1,0,1,0,0,0,2857,4500,-3072,-3072,-3072,-3072,-3072,-3072,-3072,-3072,0,0,-1024,0,0,0,0,0,0,0,0,0,-1024,2,1,42,0,74,0,0,0,0,5,2,0,0,1.5,0,0,1,0,0,1,0,0.01,1,0,3,0,0,40
43.53083667,-80.57764,450476,211846.9063,17.49213982,18.3602581,-50.75633621,-0.161504671,-0.210946068,0.165732861,-0.795007348,3.5,10.46944427,287,0,0,0,0,-1024,3,4.800000191,3.5,1.600000024,3.5,1,0,1,0,0,0,2857,4500,-3072,-3072,-3072,-3072,-3072,-3072,-3072,-3072,0,0,-1024,0,0,0,0,0,0,0,0,0,-1024,2,1,42,0,74,0,0,0,0,5,2,0,0,1.5,0,0,1,0,0,1,0,0.01,1,0,3,0,0,40
43.53084333,-80.577665,451834,211848.2969,14.9950037,13.21802902,-48.27164841,-0.269275308,-0.220974237,0.216713622,-0.584985375,10.9375,10.33888912,287,0,0,0,0,-1024,3,4.800000191,3.5,1.600000024,3.5,1,0,1,0,0,0,2857,4500,-3072,-3072,-3072,-3072,-3072,-3072,-3072,-3072,0,0,-1024,0,0,0,0,0,0,0,0,0,-1024,2,1,42,0,74,0,0,0,0,5,2,0,0,1.5,0,0,1,0,0,1,0,0.01,1,0,3,0,0,40
43.53085167,-80.57770167,451834,211848.2969,11.90817165,11.84668541,-45.77584839,-0.273706585,-0.094501026,0.232595131,-0.584985375,10.9375,10.51388931,287,0,0,0,0,-1024,3,4.800000191,3.5,1.600000024,3.5,1,0,1,0,0,0,2857,4500,-3072,-3072,-3072,-3072,-3072,-3072,-3072,-3072,0,0,-1024,0,0,0,0,0,0,0,0,0,-1024,2,1,42,0,74,0,0,0,0,5,2,0,0,1.5,0,0,1,0,0,1,0,0.01,1,0,3,0,0,40
43.53086,-80.57772833,451834,211848.2969,5.400792122,13.2808609,-44.88873291,-0.584189057,0.083471715,0.046059418,-0.584985375,10.9375,10.80277824,288,0,0,0,0,-1024,3,4.800000191,3.5,1.600000024,3.5,1,0,1,0,0,0,2857,4500,-3072,-3072,-3072,-3072,-3072,-3072,-3072,-3072,0,0,-1024,0,0,0,0,0,0,0,0,0,-1024,2,1,42,0,74,0,0,0,0,5,2,0,0,1.5,0,0,1,0,0,1,0,0.01,1,0,3,0,0,40
43.53086833,-80.57775833,453192,211849.7031,0.254089832,11.91900158,-46.22410965,-0.307412148,-0.310513794,-0.104362451,-0.554992676,10.9375,11.25555515,290,0,0,0,0,-1024,3,4.800000191,3.5,1.600000024,3.5,1,0,1,0,0,0,2857,4500,-3072,-3072,-3072,-3072,-3072,-3072,-3072,-3072,0,0,-1024,0,0,0,0,0,0,0,0,0,-1024,2,1,42,0,74,0,0,0,0,5,2,0,0,1.5,0,0,1,0,0,1,0,0.01,1,0,3,0,0,40
43.53088167,-80.57780333,453192,211849.7031,-0.480739951,12.090765,-46.67115021,0.126113489,0.11210449,0.066710465,-0.554992676,10.9375,11.59722233,291,0,0,0,0,-1024,3,4.800000191,3.5,1.600000024,3.5,1,0,1,0,0,0,2857,4500,-3072,-3072,-3072,-3072,-3072,-3072,-3072,-3072,0,0,-1024,0,0,0,0,0,0,0,0,0,-1024,2,1,41,0,74,0,0,0,0,5,2,0,0,1.5,0,0,1,0,0,1,0,0.01,1,0,3,0,0,40
43.53089333,-80.57783333,453192,211849.7031,2.926184654,10.88058949,-43.53296661,0.452946275,-0.191558719,0.315137923,-0.554992676,14.3125,11.8083334,293,0,0,0,0,-1024,3,4.800000191,3.5,1.600000024,3.5,1,0,1,0,0,0,2857,4500,-3072,-3072,-3072,-3072,-3072,-3072,-3072,-3072,0,0,-1024,0,0,0,0,0,0,0,0,0,-1024,2,1,41,0,74,0,0,0,0,5,2,0,0,1.5,0,0,1,0,0,1,0,0.01,1,0,3,0,0,40
43.530905,-80.57786333,454550,211851.0938,11.30106449,7.569699287,-39.47255325,0.784006596,-0.108214684,0.103783749,-0.840014696,14.3125,12.41388893,296,0,0,0,0,-1024,3,4.800000191,3.5,1.600000024,3.5,1,0,1,0,0,0,2857,4500,-3072,-3072,-3072,-3072,-3072,-3072,-3072,-3072,0,0,-1024,0,0,0,0,0,0,0,0,0,-1024,2,1,41,0,74,0,0,0,0,5,2,0,0,1.5,0,0,1,0,0,1,0,0.01,1,0,3,0,0,40
43.53091667,-80.57790833,454550,211851.0938,22.4285717,7.392522335,-37.37124634,0.797816634,-0.103854194,0.104180597,-0.840014696,14.3125,12.92222214,297,0,0,0,0,-1024,3,4.800000191,3.5,1.600000024,3.5,1,0,1,0,0,0,2857,4500,-3072,-3072,-3072,-3072,-3072,-3072,-3072,-3072,0,0,-1024,0,0,0,0,0,0,0,0,0,-1024,2,1,42,0,74,0,0,0,0,5,2,0,0,1.5,0,0,1,0,0,1,0,0.01,1,0,3,0,0,40
43.530935,-80.57794167,454550,211851.0938,14.33472347,12.39581585,-35.86284637,-0.742600799,0.403477103,0.404256403,-0.840014696,19.125,13.18888855,298,0,0,0,0,-1024,3,4.800000191,3.5,1.600000024,3.5,1,0,1,0,0,0,2857,4500,-3072,-3072,-3072,-3072,-3072,-3072,-3072,-3072,0,0,-1024,0,0,0,0,0,0,0,0,0,-1024,2,1,42,0,74,0,0,0,0,5,2,0,0,1.5,0,0,1,0,0,1,0,0.01,1,0,3,0,0,40
43.53095833,-80.57801167,455908,211852.5,2.091780424,16.68095016,-33.61952591,-0.68408078,0.341696709,0.272615224,-0.825000048,19.125,13.13888931,299,0,0,0,0,-1024,3,4.800000191,3.5,1.600000024,3.5,1,0,1,0,0,0,2857,4500,-3072,-3072,-3072,-3072,-3072,-3072,-3072,-3072,0,0,-1024,0,0,0,0,0,0,0,0,0,-1024,2,1,42,0,74,0,0,0,0,5,2,0,0,1.5,0,0,1,0,0,1,0,0.01,1,0,3,0,0,40
43.53097833,-80.57806,455908,211852.5,1.750132322,19.38742256,-31.69838333,0.72124964,0.094253168,0.077533819,-0.825000048,19.125,12.98611069,301,0,0,0,0,-1024,3,4.800000191,3.5,1.600000024,3.5,1,0,1,0,0,0,2857,4500,-3072,-3072,-3072,-3072,-3072,-3072,-3072,-3072,0,0,-1024,0,0,0,0,0,0,0,0,0,-1024,2,1,41,0,74,0,0,0,0,5,2,0,0,1.5,0,0,1,0,0,1,0,0.01,1,0,3,0,0,40
43.53099167,-80.57809,455908,211852.5,9.794086456,18.00588799,-28.8354969,0.660480797,-0.251373798,0.030906735,-0.825000048,19.125,12.71944427,304,0,0,0,0,-1024,3,4.800000191,3.5,1.600000024,3.5,1,0,1,0,0,0,2857,4500,-3072,-3072,-3072,-3072,-3072,-3072,-3072,-3072,0,0,-1024,0,0,0,0,0,0,0,0,0,-1024,2,1,41,0,74,0,0,0,0,5,2,0,0,1.5,0,0,1,0,0,1,0,0.01,1,0,3,0,0,40
43.531005,-80.57811833,457267,211854,16.05217552,16.35293961,-24.3133812,0.463670254,-0.206859395,0.181678817,-0.975000024,21.5625,13.34444427,307,0,0,0,0,-1024,3,4.800000191,3.5,1.600000024,3.5,1,0,1,0,0,0,2857,4500,-3072,-3072,-3072,-3072,-3072,-3072,-3072,-3072,0,0,-1024,0,0,0,0,0,0,0,0,0,-1024,2,1,41,0,74,0,0,0,0,5,2,0,0,1.5,0,0,1,0,0,1,0,0.01,1,0,3,0,0,40
43.53102833,-80.57816,457267,211854,20.76276588,17.57332993,-18.30454063,0.475985199,-0.004740608,0.372580528,-0.975000024,21.5625,13.48333359,309,0,0,0,0,-1024,3,4.800000191,3.5,1.600000024,3.5,1,0,1,0,0,0,2857,4500,-3072,-3072,-3072,-3072,-3072,-3072,-3072,-3072,0,0,-1024,0,0,0,0,0,0,0,0,0,-1024,2,1,42,0,74,0,0,0,0,5,2,0,0,1.5,0,0,1,0,0,1,0,0.01,1,0,3,0,0,40
43.531045,-80.578185,457267,211854,23.55140114,18.87137985,-13.59074211,0.214103565,0.138093218,0.312833309,-0.975000024,21.5625,13.14722252,312,0,0,0,0,-1024,3,4.800000191,3.5,1.600000024,3.5,1,0,1,0,0,0,2857,4500,-3072,-3072,-3072,-3072,-3072,-3072,-3072,-3072,0,0,-1024,0,0,0,0,0,0,0,0,0,-1024,2,1,42,0,74,0,0,0,0,5,2,0,0,1.5,0,0,1,0,0,1,0,0.01,1,0,3,0,0,40
43.53106333,-80.57821,458625,211855.4063,24.88290787,20.31753731,-9.914008141,0.017578207,-0.320577383,0.012355504,-0.959985375,21.5625,12.59722233,314,0,0,0,0,-1024,3,4.800000191,3.5,1.600000024,3.5,1,0,1,0,0,0,2857,4500,-3072,-3072,-3072,-3072,-3072,-3072,-3072,-3072,0,0,-1024,0,0,0,0,0,0,0,0,0,-1024,2,1,42,0,74,0,0,0,0,5,2,0,0,1.5,0,0,1,0,0,1,0,0.01,1,0,3,0,0,40
43.53109,-80.57824,458625,211855.4063,21.49559975,13.70992088,-9.165585518,-0.299301445,-0.346474051,0.046246376,-0.959985375,28.5,11.42500019,322,0,0,0,0,-1024,3,4.800000191,3.5,1.600000024,3.5,1,0,1,0,0,0,2857,4500,-3072,-3072,-3072,-3072,-3072,-3072,-3072,-3072,0,0,-1024,0,0,0,0,0,0,0,0,0,-1024,2,1,41,0,74,0,0,0,0,5,2,0,0,1.5,0,0,1,0,0,1,0,0.01,1,0,3,0,0,40
43.53112667,-80.57827,458625,211855.4063,18.52297592,11.48182297,-7.286308765,-0.302412093,-0.271391571,0.175792113,-0.959985375,28.5,10.77499962,329,0,0,0,0,-1024,3,4.800000191,3.5,1.600000024,3.5,1,0,1,0,0,0,2857,4500,-3072,-3072,-3072,-3072,-3072,-3072,-3072,-3072,0,0,-1024,0,0,0,0,0,0,0,0,0,-1024,2,1,41,0,74,0,0,0,0,5,2,0,0,1.5,0,0,1,0,0,1,0,0.01,1,0,3,0,0,40
43.53115833,-80.57828167,459983,211856.7969,13.87017536,8.028226852,-1.269833922,-0.112026475,-0.039825499,0.14344579,-0.734985352,28.5,10.68055534,334,0,0,0,0,-1024,3,4.800000191,3.5,1.600000024,3.5,1,0,1,0,0,0,2857,4500,-3072,-3072,-3072,-3072,-3072,-3072,-3072,-3072,0,0,-1024,0,0,0,0,0,0,0,0,0,-1024,2,1,41,0,74,0,0,0,0,5,2,0,0,1.5,0,0,1,0,0,1,0,0.01,1,0,3,0,0,40
43.5312,-80.57829,459983,211856.7969,12.45703316,7.658322811,-0.264033049,-0.124194346,-0.064018361,-0.002251364,-0.734985352,34.25,10.51666641,338,0,0,0,0,-1024,3,4.800000191,3.5,1.600000024,3.5,1,0,1,0,0,0,2857,4500,-3072,-3072,-3072,-3072,-3072,-3072,-3072,-3072,0,0,-1024,0,0,0,0,0,0,0,0,0,-1024,2,1,41,0,74,0,0,0,0,5,2,0,0,1.5,0,0,1,0,0,1,0,0.01,1,0,3,0,0,40
43.53122667,-80.57829167,459983,211856.7969,10.56143856,6.540991306,0.157447383,-0.175354481,-0.072021484,-0.005702697,-0.734985352,34.25,10.57499981,341,0,0,0,0,-1024,3,4.800000191,3.5,1.600000024,3.5,1,0,1,0,0,0,2857,4500,-3072,-3072,-3072,-3072,-3072,-3072,-3072,-3072,0,0,-1024,0,0,0,0,0,0,0,0,0,-1024,2,1,41,0,74,0,0,0,0,5,2,0,0,1.5,0,0,1,0,0,1,0,0.01,1,0,3,0,0,40
43.531245,-80.578295,461341,211858.2031,7.486706734,4.863217354,0.350581676,-0.17033276,-0.213799343,0.09808553,-0.945007384,34.25,10.64444447,344,0,0,0,0,-1024,3,4.800000191,3.5,1.600000024,3.5,1,0,1,0,0,0,2857,4500,-3072,-3072,-3072,-3072,-3072,-3072,-3072,-3072,0,0,-1024,0,0,0,0,0,0,0,0,0,-1024,2,1,41,0,74,0,0,0,0,5,2,0,0,1.5,0,0,1,0,0,1,0,0.01,1,0,3,0,0,40
43.531265,-80.578295,461341,211858.2031,3.928088427,3.644009113,0.823067069,-0.287876457,-0.034203779,0.028434813,-0.945007384,34.25,10.68888855,346,0,0,0,0,-1024,3,4.800000191,3.5,1.600000024,3.5,1,0,1,0,0,0,2857,4500,-3072,-3072,-3072,-3072,-3072,-3072,-3072,-3072,0,0,-1024,0,0,0,0,0,0,0,0,0,-1024,2,1,41,0,74,0,0,0,0,5,2,0,0,1.5,0,0,1,0,0,1,0,0.01,1,0,3,0,0,40
43.53129667,-80.57829333,461341,211858.2031,-0.928473771,-1.116292477,0.739830434,0.063397385,-0.258290946,-0.006510836,-0.945007384,38.875,11.27777767,350,0,0,0,0,-1024,3,4.800000191,3.5,1.600000024,3.5,1,0,1,0,0,0,2857,4500,-3072,-3072,-3072,-3072,-3072,-3072,-3072,-3072,0,0,-1024,0,0,0,0,0,0,0,0,0,-1024,2,1,41,0,74,0,0,0,0,5,2,0,0,1.5,0,0,1,0,0,1,0,0.01,1,0,3,0,0,40
43.53134333,-80.57828833,462699,211859.5938,0.984150708,-8.398723602,0.218548626,0.067019276,-0.61248672,-0.044135891,-0.945007384,38.875,11.67777824,353,0,0,0,0,-1024,3,4.800000191,3.5,1.600000024,3.5,1,0,1,0,0,0,2857,4500,-3072,-3072,-3072,-3072,-3072,-3072,-3072,-3072,0,0,-1024,0,0,0,0,0,0,0,0,0,-1024,2,1,41,0,74,0,0,0,0,5,2,0,0,1.5,0,0,1,0,0,1,0,0.01,1,0,3,0,0,40
43.53137833,-80.578285,462699,211859.5938,20.89220047,-29.11183167,-9.020792007,0.668482244,-0.505570889,-0.102786839,-0.945007384,38.625,11.91111088,359,0,0,0,0,-1024,3,4.800000191,3.5,1.600000024,3.5,1,0,1,0,0,0,2857,4500,-3072,-3072,-3072,-3072,-3072,-3072,-3072,-3072,0,0,-1024,0,0,0,0,0,0,0,0,0,-1024,2,1,41,0,74,0,0,0,0,5,2,0,0,1.5,0,0,1,0,0,1,0,0.01,1,0,3,0,0,40
43.53145667,-80.578285,462699,211859.5938,23.68713951,-36.78504562,-14.79070377,0.317835748,-0.290961564,-0.369486481,-0.945007384,38.625,11.65833378,360,0,0,0,0,-1024,3,4.800000191,3.5,1.600000024,3.5,1,0,1,0,0,0,2857,4500,-3072,-3072,-3072,-3072,-3072,-3072,-3072,-3072,0,0,-1024,0,0,0,0,0,0,0,0,0,-1024,2,1,41,0,74,0,0,0,0,5,2,0,0,1.5,0,0,1,0,0,1,0,0.01,1,0,3,0,0,40
43.53147833,-80.57828667,464058,211901,24.1109333,-43.72399139,-20.04791451,0.379743397,-0.558643758,-0.387491196,-0.704992712,38.625,10.94444466,357,0,0,0,0,-1024,3,4.800000191,3.5,1.600000024,3.5,1,0,1,0,0,0,2857,4500,-3072,-3072,-3072,-3072,-3072,-3072,-3072,-3072,0,0,-1024,0,0,0,0,0,0,0,0,0,-1024,2,1,41,0,74,0,0,0,0,5,2,0,0,1.5,0,0,1,0,0,1,0,0.01,1,0,3,0,0,40
43.53149833,-80.57829333,464058,211901,22.31562805,-48.3710556,-26.08343315,0.398177445,-0.031264301,-0.251113445,-0.704992712,43.5,10.8166666,355,0,0,0,0,-1024,3,4.800000191,3.5,1.600000024,3.5,1,0,1,0,0,0,2857,4500,-3072,-3072,-3072,-3072,-3072,-3072,-3072,-3072,0,0,-1024,0,0,0,0,0,0,0,0,0,-1024,2,1,41,0,74,0,0,0,0,5,2,0,0,1.5,0,0,1,0,0,1,0,0.01,1,0,3,0,0,40
43.53153,-80.57830167,464058,211901,17.7592907,-50.63396454,-35.22299194,0.325810879,-0.111316428,-0.822785497,-0.704992712,43.5,10.60277748,353,0,0,0,0,-1024,3,4.800000191,3.5,1.600000024,3.5,1,0,1,0,0,0,2857,4500,-3072,-3072,-3072,-3072,-3072,-3072,-3072,-3072,0,0,-1024,0,0,0,0,0,0,0,0,0,-1024,2,1,41,0,74,0,0,0,0,5,2,0,0,1.5,0,0,1,0,0,1,0,0.01,1,0,3,0,0,40
43.53155,-80.57830667,465416,211902.4063,12.06361866,-54.13736725,-45.67028809,0.287575245,0.081485748,-0.584263086,-0.540014684,43.5,10.63888931,350,0,0,0,0,-1024,3,4.800000191,3.5,1.600000024,3.5,1,0,1,0,0,0,2857,4500,-3072,-3072,-3072,-3072,-3072,-3072,-3072,-3072,0,0,-1024,0,0,0,0,0,0,0,0,0,-1024,2,1,41,0,74,0,0,0,0,5,2,0,0,1.5,0,0,1,0,0,1,0,0.01,1,0,3,0,0,40
43.53157667,-80.57832333,465416,211902.4063,8.411133766,-53.96654129,-55.25471115,0.27125445,0.125135213,-0.743483722,-0.540014684,43.5,10.01111126,348,0,0,0,0,-1024,3,4.800000191,3.5,1.600000024,3.5,1,0,1,0,0,0,2857,4500,-3072,-3072,-3072,-3072,-3072,-3072,-3072,-3072,0,0,-1024,0,0,0,0,0,0,0,0,0,-1024,2,1,41,0,74,0,0,0,0,5,2,0,0,1.5,0,0,1,0,0,1,0,0.01,1,0,3,0,0,40
43.53159333,-80.57833167,465416,211902.4063,4.727402687,-53.76764297,-65.74021149,0.328126013,-0.05972182,-0.782880962,-0.540014684,43.5,9.380555153,345,0,0,0,0,-1024,3,4.800000191,3.5,1.600000024,3.5,1,0,1,0,0,0,2857,4500,-3072,-3072,-3072,-3072,-3072,-3072,-3072,-3072,0,0,-1024,0,0,0,0,0,0,0,0,0,-1024,2,1,41,0,74,0,0,0,0,5,2,0,0,1.5,0,0,1,0,0,1,0,0.01,1,0,3,0,0,40
43.53160833,-80.57834,466774,211903.7969,2.684930801,-52.64163971,-78.59152985,0.74589777,0.125701562,-0.55409193,-0.945007384,49.75,9.038888931,343,0,0,0,0,-1024,3,4.800000191,3.5,1.600000024,3.5,1,0,1,0,0,0,2857,4500,-3072,-3072,-3072,-3072,-3072,-3072,-3072,-3072,0,0,-1024,0,0,0,0,0,0,0,0,0,-1024,2,1,41,0,74,0,0,0,0,5,2,0,0,1.5,0,0,1,0,0,1,0,0.01,1,0,3,0,0,40
43.53163167,-80.57835667,466774,211903.7969,2.810200453,-51.24736404,-92.22621918,0.569728374,0.223471105,-0.43495059,-0.945007384,49.75,8.158333778,338,0,0,0,0,-1024,3,4.800000191,3.5,1.600000024,3.5,1,0,1,0,0,0,2857,4500,-3072,-3072,-3072,-3072,-3072,-3072,-3072,-3072,0,0,-1024,0,0,0,0,0,0,0,0,0,-1024,2,1,42,0,74,0,0,0,0,5,2,0,0,1.5,0,0,1,0,0,1,0,0.01,1,0,3,0,0,40
43.53165,-80.578375,466774,211903.7969,2.975734711,-49.69967651,-103.8709946,0.676482797,0.237071991,-0.448355377,-0.945007384,49.75,7.25,310,0,0,0,0,-1024,3,4.800000191,3.5,1.600000024,3.5,1,0,1,0,0,0,2857,4500,-3072,-3072,-3072,-3072,-3072,-3072,-3072,-3072,0,0,-1024,0,0,0,0,0,0,0,0,0,-1024,2,1,42,0,74,0,0,0,0,5,2,0,0,1.5,0,0,1,0,0,1,0,0.01,1,0,3,0,0,40
43.53165833,-80.57838833,468132,211905.2031,3.01150012,-46.90033722,-113.0929108,0.499648273,0.226393312,-0.455628008,-0.600000024,49.75,6.272222042,308,0,0,0,0,-1024,3,4.800000191,3.5,1.600000024,3.5,1,0,1,0,0,0,2857,4500,-3072,-3072,-3072,-3072,-3072,-3072,-3072,-3072,0,0,-1024,0,0,0,0,0,0,0,0,0,-1024,2,1,42,0,74,0,0,0,0,5,2,0,0,1.5,0,0,1,0,0,1,0,0.01,1,0,3,0,0,40
43.53166667,-80.5784,468132,211905.2031,2.325942516,-43.69010925,-121.6057739,0.218945876,0.504152298,-0.507283986,-0.600000024,51.9375,4.155555725,262,0,0,0,0,-1024,3,4.800000191,3.5,1.600000024,3.5,1,0,1,0,0,0,2857,4500,-3072,-3072,-3072,-3072,-3072,-3072,-3072,-3072,0,0,-1024,0,0,0,0,0,0,0,0,0,-1024,2,1,42,0,74,0,0,0,0,5,2,0,0,1.5,0,0,1,0,0,1,0,0.01,1,0,3,0,0,40
43.53167,-80.57841667,468132,211905.2031,0.696678519,-36.72099304,-128.1572418,0.128100559,0.418807685,-0.527984738,-0.600000024,51.9375,5.516666889,225,0,0,0,0,-1024,3,4.800000191,3.5,1.600000024,3.5,1,0,1,0,0,0,2857,4500,-3072,-3072,-3072,-3072,-3072,-3072,-3072,-3072,0,0,-1024,0,0,0,0,0,0,0,0,0,-1024,2,1,42,0,74,0,0,0,0,5,2,0,0,1.5,0,0,1,0,0,1,0,0.01,1,0,3,0,0,40
43.531665,-80.57842667,469491,211906.5938,0.185474947,-30.78032684,-136.2560272,0.133734062,0.544576168,-0.49250865,-0.765014708,51.9375,6.972222328,220,0,0,0,0,-1024,3,4.800000191,3.5,1.600000024,3.5,1,0,1,0,0,0,2857,4500,-3072,-3072,-3072,-3072,-3072,-3072,-3072,-3072,0,0,-1024,0,0,0,0,0,0,0,0,0,-1024,2,1,42,0,74,0,0,0,0,5,2,0,0,1.5,0,0,1,0,0,1,0,0.01,1,0,3,0,0,40
43.53165667,-80.57843833,469491,211906.5938,1.797942996,-23.89679909,-143.5995026,0.169449255,0.518257558,-0.349365771,-0.765014708,51.9375,8.041666985,214,0,0,0,0,-1024,3,4.800000191,3.5,1.600000024,3.5,1,0,1,0,0,0,2857,4500,-3072,-3072,-3072,-3072,-3072,-3072,-3072,-3072,0,0,-1024,0,0,0,0,0,0,0,0,0,-1024,2,1,41,0,74,0,0,0,0,5,2,0,0,1.5,0,0,1,0,0,1,0,0.01,1,0,3,0,0,40
43.531645,-80.57844833,469491,211906.5938,5.359885693,-17.40666389,-150.5113525,0.430470139,0.475221932,-0.495284379,-0.765014708,53.125,8.966666222,206,0,0,0,0,-1024,3,4.800000191,3.5,1.600000024,3.5,1,0,1,0,0,0,2857,4500,-3072,-3072,-3072,-3072,-3072,-3072,-3072,-3072,0,0,-1024,0,0,0,0,0,0,0,0,0,-1024,2,1,41,0,74,0,0,0,0,5,2,0,0,1.5,0,0,1,0,0,1,0,0.01,1,0,3,0,0,40
43.53163167,-80.57846,470849,211908,8.154005051,-13.35171413,-156.6971741,0.369271874,0.372975975,-0.288278341,-0.7799927,53.125,9.441666603,201,0,0,0,0,-1024,3,4.800000191,3.5,1.600000024,3.5,1,0,1,0,0,0,2857,4500,-3072,-3072,-3072,-3072,-3072,-3072,-3072,-3072,0,0,-1024,0,0,0,0,0,0,0,0,0,-1024,2,1,41,0,74,0,0,0,0,5,2,0,0,1.5,0,0,1,0,0,1,0,0.01,1,0,3,0,0,40
43.53160833,-80.57847333,470849,211908,8.688040733,-10.0482626,-160.6768188,-0.056028955,-0.024324145,-0.247169942,-0.7799927,53.125,9.672222137,195,0,0,0,0,-1024,3,4.800000191,3.5,1.600000024,3.5,1,0,1,0,0,0,2857,4500,-3072,-3072,-3072,-3072,-3072,-3072,-3072,-3072,0,0,-1024,0,0,0,0,0,0,0,0,0,-1024,2,1,41,0,74,0,0,0,0,5,2,0,0,1.5,0,0,1,0,0,1,0,0.01,1,0,3,0,0,40
43.53159167,-80.57848,470849,211908,6.391441345,-8.785118103,-162.6903229,-0.204683244,0.2341322,-0.077064849,-0.7799927,53.125,9.986110687,190,0,0,0,0,-1024,3,4.800000191,3.5,1.600000024,3.5,1,0,1,0,0,0,2857,4500,-3072,-3072,-3072,-3072,-3072,-3072,-3072,-3072,0,0,-1024,0,0,0,0,0,0,0,0,0,-1024,2,1,41,0,74,0,0,0,0,5,2,0,0,1.5,0,0,1,0,0,1,0,0.01,1,0,3,0,0,40
43.531575,-80.578485,472207,211909.4063,29.32415962,-7.63838625,-173.4753723,0.491193533,-0.018810876,-0.118857667,-0.809985399,55,12.50277805,165,0,0,0,0,-1024,3,4.800000191,3.5,1.600000024,3.5,1,0,1,0,0,0,2857,4500,-3072,-3072,-3072,-3072,-3072,-3072,-3072,-3072,0,0,-1024,0,0,0,0,0,0,0,0,0,-1024,2,1,41,0,74,0,0,0,0,5,2,0,0,1.5,0,0,1,0,0,1,0,0.01,1,0,3,0,0,40
43.531455,-80.57847,472207,211909.4063,34.84803391,-8.531923294,-176.5320435,0.388715535,0.194592342,-0.124047644,-0.809985399,58.0625,15.25277805,162,0,0,0,0,-1024,3,4.800000191,3.5,1.600000024,3.5,1,0,1,0,0,0,2857,4500,-3072,-3072,-3072,-3072,-3072,-3072,-3072,-3072,0,0,-1024,0,0,0,0,0,0,0,0,0,-1024,2,1,41,0,74,0,0,0,0,5,2,0,0,1.5,0,0,1,0,0,1,0,0.01,1,0,3,0,0,40
43.53142667,-80.57846,472207,211909.4063,39.05336761,-8.37150383,-179.4260254,0.224696681,0.190010875,-0.194550723,-0.809985399,58.0625,14.71388912,161,0,0,0,0,-1024,3,4.800000191,3.5,1.600000024,3.5,1,0,1,0,0,0,2857,4500,-3072,-3072,-3072,-3072,-3072,-3072,-3072,-3072,0,0,-1024,0,0,0,0,0,0,0,0,0,-1024,2,1,41,0,74,0,0,0,0,5,2,0,0,1.5,0,0,1,0,0,1,0,0.01,1,0,3,0,0,40
43.5314,-80.57844833,473565,211910.7969,40.26821518,-10.42645741,177.4248047,-0.154164866,-0.160520613,-0.088422477,-0.465014666,58.0625,14.14444447,159,0,0,0,0,-1024,3,4.800000191,3.5,1.600000024,3.5,1,0,1,0,0,0,2857,4500,-3072,-3072,-3072,-3072,-3072,-3072,-3072,-3072,0,0,-1024,0,0,0,0,0,0,0,0,0,-1024,2,1,41,0,74,0,0,0,0,5,2,0,0,1.5,0,0,1,0,0,1,0,0.01,1,0,3,0,0,40
43.53136167,-80.57843667,473565,211910.7969,34.46927261,-10.87483025,177.0128479,-0.568681479,-0.040585577,-0.113672592,-0.465014666,58.0625,13.21666622,157,0,0,0,0,-1024,3,4.800000191,3.5,1.600000024,3.5,1,0,1,0,0,0,2857,4500,-3072,-3072,-3072,-3072,-3072,-3072,-3072,-3072,0,0,-1024,0,0,0,0,0,0,0,0,0,-1024,2,1,41,0,74,0,0,0,0,5,2,0,0,1.5,0,0,1,0,0,1,0,0.01,1,0,3,0,0,40
43.53133667,-80.57843333,473565,211910.7969,24.89656448,-8.710757256,177.2854767,-0.757485867,0.055055037,-0.082207367,-0.465014666,64.4375,12.46944427,155,0,0,0,0,-1024,3,4.800000191,3.5,1.600000024,3.5,1,0,1,0,0,0,2857,4500,-3072,-3072,-3072,-3072,-3072,-3072,-3072,-3072,0,0,-1024,0,0,0,0,0,0,0,0,0,-1024,2,1,41,0,74,0,0,0,0,5,2,0,0,1.5,0,0,1,0,0,1,0,0.01,1,0,3,0,0,40
43.53130333,-80.57842,474923,211912.2031,14.50965214,-6.831208229,176.4331818,-0.587474167,0.258242935,-0.23491773,-0.795007348,64.4375,11.84444427,154,0,0,0,0,-1024,3,4.800000191,3.5,1.600000024,3.5,1,0,1,0,0,0,2857,4500,-3072,-3072,-3072,-3072,-3072,-3072,-3072,-3072,0,0,-1024,0,0,0,0,0,0,0,0,0,-1024,2,1,41,0,74,0,0,0,0,5,2,0,0,1.5,0,0,1,0,0,1,0,0.01,1,0,3,0,0,40
43.53128333,-80.57841,474923,211912.2031,10.41921043,-7.214906693,174.2110901,-0.119692564,0.033690941,-0.207313493,-0.795007348,64.4375,11.36666679,152,0,0,0,0,-1024,3,4.800000191,3.5,1.600000024,3.5,1,0,1,0,0,0,2857,4500,-3072,-3072,-3072,-3072,-3072,-3072,-3072,-3072,0,0,-1024,0,0,0,0,0,0,0,0,0,-1024,2,1,41,0,74,0,0,0,0,5,2,0,0,1.5,0,0,1,0,0,1,0,0.01,1,0,3,0,0,40
43.53126167,-80.57840167,474923,211912.2031,9.465506554,-8.046291351,171.3161469,-0.044811837,-0.08385022,-0.214347795,-0.795007348,64.4375,10.86388874,149,0,0,0,0,-1024,3,4.800000191,3.5,1.600000024,3.5,1,0,1,0,0,0,2857,4500,-3072,-3072,-3072,-3072,-3072,-3072,-3072,-3072,0,0,-1024,0,0,0,0,0,0,0,0,0,-1024,2,1,41,0,74,0,0,0,0,5,2,0,0,1.5,0,0,1,0,0,1,0,0.01,1,0,3,0,0,40
43.53123833,-80.57838833,476282,211913.5938,9.67603302,-8.411292076,168.7975769,-0.006594228,0.012892337,-0.133921757,-1.050000072,67.3125,11.06944466,147,0,0,0,0,-1024,3,4.800000191,3.5,1.600000024,3.5,1,0,1,0,0,0,2857,4500,-3072,-3072,-3072,-3072,-3072,-3072,-3072,-3072,0,0,-1024,0,0,0,0,0,0,0,0,0,-1024,2,1,41,0,74,0,0,0,0,5,2,0,0,1.5,0,0,1,0,0,1,0,0.01,1,0,3,0,0,40
43.531205,-80.578375,476282,211913.5938,9.373179436,-6.148935318,167.7538605,-0.193202525,0.458529323,-0.113908291,-1.050000072,67.3125,11.33333302,147,0,0,0,0,-1024,3,4.800000191,3.5,1.600000024,3.5,1,0,1,0,0,0,2857,4500,-3072,-3072,-3072,-3072,-3072,-3072,-3072,-3072,0,0,-1024,0,0,0,0,0,0,0,0,0,-1024,2,1,41,0,74,0,0,0,0,5,2,0,0,1.5,0,0,1,0,0,1,0,0.01,1,0,3,0,0,40
43.53118333,-80.57836167,476282,211913.5938,5.87582159,-0.179887444,166.9099426,-0.426364034,0.694600761,-0.109081022,-1.050000072,67.3125,11.48611069,146,0,0,0,0,-1024,3,4.800000191,3.5,1.600000024,3.5,1,0,1,0,0,0,2857,4500,-3072,-3072,-3072,-3072,-3072,-3072,-3072,-3072,0,0,-1024,0,0,0,0,0,0,0,0,0,-1024,2,1,41,0,74,0,0,0,0,5,2,0,0,1.5,0,0,1,0,0,1,0,0.01,1,0,3,0,0,40
43.53114833,-80.57833833,477640,211915.0938,6.329352856,29.3662529,171.5609741,0.4036614,0.352239549,0.300822735,-1.034985423,67.25,12.58888912,142,0,0,0,0,-1024,3,4.800000191,3.5,1.600000024,3.5,1,0,1,0,0,0,2857,4500,-3072,-3072,-3072,-3072,-3072,-3072,-3072,-3072,0,0,-1024,0,0,0,0,0,0,0,0,0,-1024,2,1,41,0,74,0,0,0,0,5,2,0,0,1.5,0,0,1,0,0,1,0,0.01,1,0,3,0,0,40
43.53107167,-80.578275,477640,211915.0938,7.099894047,34.23099899,177.3184967,0.17256549,0.200199366,0.306148618,-1.034985423,67.25,12.82222176,140,0,0,0,0,-1024,3,4.800000191,3.5,1.600000024,3.5,1,0,1,0,0,0,2857,4500,-3072,-3072,-3072,-3072,-3072,-3072,-3072,-3072,0,0,-1024,0,0,0,0,0,0,0,0,0,-1024,2,1,41,0,74,0,0,0,0,5,2,0,0,1.5,0,0,1,0,0,1,0,0.01,1,0,3,0,0,40
43.53105167,-80.578255,477640,211915.0938,6.637489319,40.45875168,-174.8041687,0.493641317,0.344935894,0.62907505,-1.034985423,67.25,13.375,141,0,0,0,0,-1024,3,4.800000191,3.5,1.600000024,3.5,1,0,1,0,0,0,2857,4500,-3072,-3072,-3072,-3072,-3072,-3072,-3072,-3072,0,0,-1024,0,0,0,0,0,0,0,0,0,-1024,2,1,41,0,74,0,0,0,0,5,2,0,0,1.5,0,0,1,0,0,1,0,0.01,1,0,3,0,0,40
43.53102667,-80.57823333,478998,211916.5,5.677939415,47.13532257,-164.9411621,0.220465466,0.519364059,0.562428057,-0.329992682,67.25,13.86111069,142,0,0,0,0,-1024,3,4.800000191,3.5,1.600000024,3.5,1,0,1,0,0,0,2857,4500,-3072,-3072,-3072,-3072,-3072,-3072,-3072,-3072,0,0,-1024,0,0,0,0,0,0,0,0,0,-1024,2,1,41,0,74,0,0,0,0,5,2,0,0,1.5,0,0,1,0,0,1,0,0.01,1,0,3,0,0,40
43.53098333,-80.578205,478998,211916.5,3.018917799,51.07003403,-155.2502899,0.273660302,-0.123363167,0.541582525,-0.329992682,66.75,14.14444447,146,0,0,0,0,-1024,3,4.800000191,3.5,1.600000024,3.5,1,0,1,0,0,0,2857,4500,-3072,-3072,-3072,-3072,-3072,-3072,-3072,-3072,0,0,-1024,0,0,0,0,0,0,0,0,0,-1024,2,1,41,0,74,0,0,0,0,5,2,0,0,1.5,0,0,1,0,0,1,0,0.01,1,0,3,0,0,40
43.53095333,-80.57818667,478998,211916.5,-1.358611703,49.04380035,-147.2260895,0.234900609,-0.253045976,0.736476898,-0.329992682,66.75,14.34166622,153,0,0,0,0,-1024,3,4.800000191,3.5,1.600000024,3.5,1,0,1,0,0,0,2857,4500,-3072,-3072,-3072,-3072,-3072,-3072,-3072,-3072,0,0,-1024,0,0,0,0,0,0,0,0,0,-1024,2,1,41,0,74,0,0,0,0,5,2,0,0,1.5,0,0,1,0,0,1,0,0.01,1,0,3,0,0,40
43.53090667,-80.57816333,480356,211917.9063,-7.301815033,45.41788101,-139.7532654,0.382637113,-0.246338561,0.730845451,-0.300000012,66.75,14.25555515,160,0,0,0,0,-1024,3,4.800000191,3.5,1.600000024,3.5,1,0,1,0,0,0,2857,4500,-3072,-3072,-3072,-3072,-3072,-3072,-3072,-3072,0,0,-1024,0,0,0,0,0,0,0,0,0,-1024,2,1,41,0,74,0,0,0,0,5,2,0,0,1.5,0,0,1,0,0,1,0,0.01,1,0,3,0,0,40
43.53087333,-80.57815667,480356,211917.9063,-8.325333595,40.33698273,-129.0089569,0.736911535,-0.270796001,0.516188085,-0.300000012,66.75,14.14999962,167,0,0,0,0,-1024,3,4.800000191,3.5,1.600000024,3.5,1,0,1,0,0,0,2857,4500,-3072,-3072,-3072,-3072,-3072,-3072,-3072,-3072,0,0,-1024,0,0,0,0,0,0,0,0,0,-1024,2,1,42,0,74,0,0,0,0,5,2,0,0,1.5,0,0,1,0,0,1,0,0.01,1,0,3,0,0,40
43.53084167,-80.578155,480356,211917.9063,-5.44985199,34.63051224,-118.43853,0.568955064,-0.308611959,0.525852025,-0.300000012,62.125,13.88611126,174,0,0,0,0,-1024,3,4.800000191,3.5,1.600000024,3.5,1,0,1,0,0,0,2857,4500,-3072,-3072,-3072,-3072,-3072,-3072,-3072,-3072,0,0,-1024,0,0,0,0,0,0,0,0,0,-1024,2,1,42,0,74,0,0,0,0,5,2,0,0,1.5,0,0,1,0,0,1,0,0.01,1,0,3,0,0,40
43.53081167,-80.57815333,481714,211919.2969,-1.823756695,33.27080536,-110.3642807,0.482955515,0.188615203,0.141061455,-0.870007336,62.125,13.78888893,181,0,0,0,0,-1024,3,4.800000191,3.5,1.600000024,3.5,1,0,1,0,0,0,2857,4500,-3072,-3072,-3072,-3072,-3072,-3072,-3072,-3072,0,0,-1024,0,0,0,0,0,0,0,0,0,-1024,2,1,42,0,74,0,0,0,0,5,2,0,0,1.5,0,0,1,0,0,1,0,0.01,1,0,3,0,0,40
43.53075833,-80.57815,481714,211919.2969,3.595843792,34.18213272,-105.8065491,0.521217942,-0.004778043,-0.014754939,-0.870007336,62.125,13.91111088,188,0,0,0,0,-1024,3,4.800000191,3.5,1.600000024,3.5,1,0,1,0,0,0,2857,4500,-3072,-3072,-3072,-3072,-3072,-3072,-3072,-3072,0,0,-1024,0,0,0,0,0,0,0,0,0,-1024,2,1,42,0,74,0,0,0,0,5,2,0,0,1.5,0,0,1,0,0,1,0,0.01,1,0,3,0,0,40
43.53072167,-80.578155,481714,211919.2969,9.036762238,31.48374557,-101.0929184,0.543398321,-0.407754153,0.160563737,-0.870007336,62.125,14.08611107,204,0,0,0,0,-1024,3,4.800000191,3.5,1.600000024,3.5,1,0,1,0,0,0,2857,4500,-3072,-3072,-3072,-3072,-3072,-3072,-3072,-3072,0,0,-1024,0,0,0,0,0,0,0,0,0,-1024,2,1,42,0,74,0,0,0,0,5,2,0,0,1.5,0,0,1,0,0,1,0,0.01,1,0,3,0,0,40
43.53069167,-80.57816833,483073,211920.7031,11.6893301,26.85876846,-93.80225372,0.436681747,-0.370226145,0.451550573,-0.854992688,58.5625,14.17777824,211,0,0,0,0,-1024,3,4.800000191,3.5,1.600000024,3.5,1,0,1,0,0,0,2857,4500,-3072,-3072,-3072,-3072,-3072,-3072,-3072,-3072,0,0,-1024,0,0,0,0,0,0,0,0,0,-1024,2,1,42,0,74,0,0,0,0,5,2,0,0,1.5,0,0,1,0,0,1,0,0.01,1,0,3,0,0,40
43.53065167,-80.57819833,483073,211920.7031,12.9893589,26.99461174,-85.46027374,0.419803321,0.293921322,0.388804972,-0.854992688,58.5625,13.74722195,218,0,0,0,0,-1024,3,4.800000191,3.5,1.600000024,3.5,1,0,1,0,0,0,2857,4500,-3072,-3072,-3072,-3072,-3072,-3072,-3072,-3072,0,0,-1024,0,0,0,0,0,0,0,0,0,-1024,2,1,41,0,74,0,0,0,0,5,2,0,0,1.5,0,0,1,0,0,1,0,0.01,1,0,3,0,0,40
43.53063,-80.57822167,483073,211920.7031,16.15583801,31.93445969,-79.03775787,0.446556807,0.275274277,0.279275239,-0.854992688,58.5625,12.49722195,231,0,0,0,0,-1024,3,4.800000191,3.5,1.600000024,3.5,1,0,1,0,0,0,2857,4500,-3072,-3072,-3072,-3072,-3072,-3072,-3072,-3072,0,0,-1024,0,0,0,0,0,0,0,0,0,-1024,2,1,41,0,74,0,0,0,0,5,2,0,0,1.5,0,0,1,0,0,1,0,0.01,1,0,3,0,0,40
43.53059667,-80.57825667,484431,211922.0938,20.12794304,38.8409462,-72.62129974,0.606451929,0.251893699,0.219006702,-0.704992712,58.5625,12.10277748,235,0,0,0,0,-1024,3,4.800000191,3.5,1.600000024,3.5,1,0,1,0,0,0,2857,4500,-3072,-3072,-3072,-3072,-3072,-3072,-3072,-3072,0,0,-1024,0,0,0,0,0,0,0,0,0,-1024,2,1,41,0,74,0,0,0,0,5,2,0,0,1.5,0,0,1,0,0,1,0,0.01,1,0,3,0,0,40
43.53058167,-80.57828333,484431,211922.0938,22.67401505,44.41934967,-66.08966827,0.356564611,0.182964072,0.269450068,-0.704992712,62.1875,11.80277824,238,0,0,0,0,-1024,3,4.800000191,3.5,1.600000024,3.5,1,0,1,0,0,0,2857,4500,-3072,-3072,-3072,-3072,-3072,-3072,-3072,-3072,0,0,-1024,0,0,0,0,0,0,0,0,0,-1024,2,1,41,0,74,0,0,0,0,5,2,0,0,1.5,0,0,1,0,0,1,0,0.01,1,0,3,0,0,40
43.53057,-80.57830833,484431,211922.0938,23.16884995,47.19264603,-59.85909653,0.368919224,0.079558603,0.312461406,-0.704992712,62.1875,11.05555534,240,0,0,0,0,-1024,3,4.800000191,3.5,1.600000024,3.5,1,0,1,0,0,0,2857,4500,-3072,-3072,-3072,-3072,-3072,-3072,-3072,-3072,0,0,-1024,0,0,0,0,0,0,0,0,0,-1024,2,1,41,0,74,0,0,0,0,5,2,0,0,1.5,0,0,1,0,0,1,0,0.01,1,0,3,0,0,40
43.53056167,-80.57833167,485789,211923.5,21.27224922,50.66534424,-52.36517334,0.335597962,0.049127162,0.499661535,-1.200000048,62.1875,9.586111069,248,0,0,0,0,-1024,3,4.800000191,3.5,1.600000024,3.5,1,0,1,0,0,0,2857,4500,-3072,-3072,-3072,-3072,-3072,-3072,-3072,-3072,0,0,-1024,0,0,0,0,0,0,0,0,0,-1024,2,1,41,0,74,0,0,0,0,5,2,0,0,1.5,0,0,1,0,0,1,0,0.01,1,0,3,0,0,40
43.53055167,-80.578365,485789,211923.5,16.64931107,49.7236557,-45.10743332,-0.184486032,-0.483407468,0.698584616,-1.200000048,62.1875,8.694444656,257,0,0,0,0,-1024,3,4.800000191,3.5,1.600000024,3.5,1,0,1,0,0,0,2857,4500,-3072,-3072,-3072,-3072,-3072,-3072,-3072,-3072,0,0,-1024,0,0,0,0,0,0,0,0,0,-1024,2,1,41,0,74,0,0,0,0,5,2,0,0,1.5,0,0,1,0,0,1,0,0.01,1,0,3,0,0,40
43.53054833,-80.578385,485789,211923.5,7.731215477,42.1603508,-38.4080925,-0.425571144,-0.534138083,0.797586858,-1.200000048,62.1875,7.894444466,270,0,0,0,0,-1024,3,4.800000191,3.5,1.600000024,3.5,1,0,1,0,0,0,2857,4500,-3072,-3072,-3072,-3072,-3072,-3072,-3072,-3072,0,0,-1024,0,0,0,0,0,0,0,0,0,-1024,2,1,41,0,74,0,0,0,0,5,2,0,0,1.5,0,0,1,0,0,1,0,0.01,1,0,3,0,0,40
43.53054667,-80.578415,487147,211924.9063,-0.986500502,32.46068192,-31.04883957,-0.208466858,-0.812761188,0.779301047,-0.540014684,67.125,7.683333397,277,0,0,0,0,-1024,3,4.800000191,3.5,1.600000024,3.5,1,0,1,0,0,0,2857,4500,-3072,-3072,-3072,-3072,-3072,-3072,-3072,-3072,0,0,-1024,0,0,0,0,0,0,0,0,0,-1024,2,1,41,0,74,0,0,0,0,5,2,0,0,1.5,0,0,1,0,0,1,0,0.01,1,0,3,0,0,40
43.53054833,-80.578435,487147,211924.9063,-6.764542103,22.24614525,-24.1597805,-0.318385363,-0.598726928,0.648295403,-0.540014684,67.125,7.441666603,282,0,0,0,0,-1024,3,4.800000191,3.5,1.600000024,3.5,1,0,1,0,0,0,2857,4500,-3072,-3072,-3072,-3072,-3072,-3072,-3072,-3072,0,0,-1024,0,0,0,0,0,0,0,0,0,-1024,2,1,41,0,74,0,0,0,0,5,2,0,0,1.5,0,0,1,0,0,1,0,0.01,1,0,3,0,0,40
43.53055,-80.57845333,487147,211924.9063,-10.33699131,12.54571724,-17.00378227,-0.06353943,-0.469831735,0.462721288,-0.540014684,67.125,7.400000095,289,0,0,0,0,-1024,3,4.800000191,3.5,1.600000024,3.5,1,0,1,0,0,0,2857,4500,-3072,-3072,-3072,-3072,-3072,-3072,-3072,-3072,0,0,-1024,0,0,0,0,0,0,0,0,0,-1024,2,1,41,0,74,0,0,0,0,5,2,0,0,1.5,0,0,1,0,0,1,0,0.01,1,0,3,0,0,40
43.53055667,-80.57847833,488506,211926.2969,-9.364833832,9.996382713,-12.23746872,0.402910709,0.225485981,0.199692339,-0.945007384,67.125,7.366666794,295,0,0,0,0,-1024,3,4.800000191,3.5,1.600000024,3.5,1,0,1,0,0,0,2857,4500,-3072,-3072,-3072,-3072,-3072,-3072,-3072,-3072,0,0,-1024,0,0,0,0,0,0,0,0,0,-1024,2,1,41,0,74,0,0,0,0,5,2,0,0,1.5,0,0,1,0,0,1,0,0.01,1,0,3,0,0,40
43.53056167,-80.578495,488506,211926.2969,-5.559680462,12.54179478,-11.56829643,0.287699819,0.241352126,-0.11468336,-0.945007384,64.25,7.330555439,303,0,0,0,0,-1024,3,4.800000191,3.5,1.600000024,3.5,1,0,1,0,0,0,2857,4500,-3072,-3072,-3072,-3072,-3072,-3072,-3072,-3072,0,0,-1024,0,0,0,0,0,0,0,0,0,-1024,2,1,41,0,74,0,0,0,0,5,2,0,0,1.5,0,0,1,0,0,1,0,0.01,1,0,3,0,0,40
43.53057167,-80.57851833,488506,211926.2969,-1.330991149,15.165905,-12.01279259,0.114590839,0.283496469,-0.102676228,-0.945007384,64.25,7.333333492,308,0,0,0,0,-1024,3,4.800000191,3.5,1.600000024,3.5,1,0,1,0,0,0,2857,4500,-3072,-3072,-3072,-3072,-3072,-3072,-3072,-3072,0,0,-1024,0,0,0,0,0,0,0,0,0,-1024,2,1,41,0,74,0,0,0,0,5,2,0,0,1.5,0,0,1,0,0,1,0,0.01,1,0,3,0,0,40
43.530575,-80.57853333,489864,211927.7031,2.201912403,17.72046661,-10.80666733,0.415878683,0.042309798,0.124062851,-0.570007324,64.25,7.758333206,321,0,0,0,0,-1024,3,4.800000191,3.5,1.600000024,3.5,1,0,1,0,0,0,2857,4500,-3072,-3072,-3072,-3072,-3072,-3072,-3072,-3072,0,0,-1024,0,0,0,0,0,0,0,0,0,-1024,2,1,41,0,74,0,0,0,0,5,2,0,0,1.5,0,0,1,0,0,1,0,0.01,1,0,3,0,0,40
43.53059,-80.57854667,489864,211927.7031,4.911062717,18.5013485,-7.189551353,0.387887239,0.085835338,0.340322405,-0.570007324,64.25,7.938889027,327,0,0,0,0,-1024,3,4.800000191,3.5,1.600000024,3.5,1,0,1,0,0,0,2857,4500,-3072,-3072,-3072,-3072,-3072,-3072,-3072,-3072,0,0,-1024,0,0,0,0,0,0,0,0,0,-1024,2,1,40,0,74,0,0,0,0,5,2,0,0,1.5,0,0,1,0,0,1,0,0.01,1,0,3,0,0,40
43.5306,-80.57855833,489864,211927.7031,6.143307209,21.11586761,5.210646629,0.315347582,0.032970637,0.455310911,-0.570007324,64.875,9.072221756,341,0,0,0,0,-1024,3,4.800000191,3.5,1.600000024,3.5,1,0,1,0,0,0,2857,4500,-3072,-3072,-3072,-3072,-3072,-3072,-3072,-3072,0,0,-1024,0,0,0,0,0,0,0,0,0,-1024,2,1,40,0,74,0,0,0,0,5,2,0,0,1.5,0,0,1,0,0,1,0,0.01,1,0,3,0,0,40
43.530635,-80.57858167,491222,211929.0938,6.122481346,20.91495132,10.46651173,0.237401828,-0.333585173,0.478049934,-0.495007336,64.875,9.727777481,349,0,0,0,0,-1024,3,4.800000191,3.5,1.600000024,3.5,1,0,1,0,0,0,2857,4500,-3072,-3072,-3072,-3072,-3072,-3072,-3072,-3072,0,0,-1024,0,0,0,0,0,0,0,0,0,-1024,2,1,40,0,74,0,0,0,0,5,2,0,0,1.5,0,0,1,0,0,1,0,0.01,1,0,3,0,0,40
43.53065167,-80.57858833,491222,211929.0938,5.376662731,14.42315578,17.34104919,0.218497545,-0.554775834,0.561931491,-0.495007336,64.875,10.84166622,355,0,0,0,0,-1024,3,4.800000191,3.5,1.600000024,3.5,1,0,1,0,0,0,2857,4500,-3072,-3072,-3072,-3072,-3072,-3072,-3072,-3072,0,0,-1024,0,0,0,0,0,0,0,0,0,-1024,2,1,40,0,74,0,0,0,0,5,2,0,0,1.5,0,0,1,0,0,1,0,0.01,1,0,3,0,0,40
43.53068,-80.57859333,491222,211929.0938,6.996899605,5.009330273,23.85873795,0.20385386,-0.740463853,0.29742828,-0.495007336,65.0625,11.65555573,0,0,0,0,0,-1024,3,4.800000191,3.5,1.600000024,3.5,1,0,1,0,0,0,2857,4500,-3072,-3072,-3072,-3072,-3072,-3072,-3072,-3072,0,0,-1024,0,0,0,0,0,0,0,0,0,-1024,2,1,40,0,74,0,0,0,0,5,2,0,0,1.5,0,0,1,0,0,1,0,0.01,1,0,3,0,0,40
43.5307,-80.57859333,492580,211930.5,9.1593647,-3.427988291,28.27215195,-0.013592716,-0.511494756,0.188796535,-0.72000736,65.0625,12.60277748,6,0,0,0,0,-1024,3,4.800000191,3.5,1.600000024,3.5,1,0,1,0,0,0,2857,4500,-3072,-3072,-3072,-3072,-3072,-3072,-3072,-3072,0,0,-1024,0,0,0,0,0,0,0,0,0,-1024,2,1,40,0,74,0,0,0,0,5,2,0,0,1.5,0,0,1,0,0,1,0,0.01,1,0,3,0,0,40
43.53073333,-80.57859,492580,211930.5,11.24398613,-6.626187325,28.32409477,-0.047729291,-0.006693203,-0.200210497,-0.72000736,65.0625,12.88611126,8,0,0,0,0,-1024,3,4.800000191,3.5,1.600000024,3.5,1,0,1,0,0,0,2857,4500,-3072,-3072,-3072,-3072,-3072,-3072,-3072,-3072,0,0,-1024,0,0,0,0,0,0,0,0,0,-1024,2,1,40,0,74,0,0,0,0,5,2,0,0,1.5,0,0,1,0,0,1,0,0.01,1,0,3,0,0,40
43.530745,-80.57858667,492580,211930.5,11.07739258,-5.317100048,24.59535027,0.237782747,0.156441227,-0.290746421,-0.72000736,65.0625,13.33333302,14,0,0,0,0,-1024,3,4.800000191,3.5,1.600000024,3.5,1,0,1,0,0,0,2857,4500,-3072,-3072,-3072,-3072,-3072,-3072,-3072,-3072,0,0,-1024,0,0,0,0,0,0,0,0,0,-1024,2,1,40,0,74,0,0,0,0,5,2,0,0,1.5,0,0,1,0,0,1,0,0.01,1,0,3,0,0,40
43.53078,-80.57857667,493938,211931.9063,12.00662994,-2.356838465,17.62117958,0.139835998,0.094521746,-0.018765353,-0.525000036,66.75,13.04722214,17,0,0,0,0,-1024,3,4.800000191,3.5,1.600000024,3.5,1,0,1,0,0,0,2857,4500,-3072,-3072,-3072,-3072,-3072,-3072,-3072,-3072,0,0,-1024,0,0,0,0,0,0,0,0,0,-1024,2,1,40,0,74,0,0,0,0,5,2,0,0,1.5,0,0,1,0,0,1,0,0.01,1,0,3,0,0,40
43.53083667,-80.578555,493938,211931.9063,12.42491627,-0.258034527,17.85310936,0.162807614,0.403365165,0.096628651,-0.525000036,66.75,12.90555573,19,0,0,0,0,-1024,3,4.800000191,3.5,1.600000024,3.5,1,0,1,0,0,0,2857,4500,-3072,-3072,-3072,-3072,-3072,-3072,-3072,-3072,0,0,-1024,0,0,0,0,0,0,0,0,0,-1024,2,1,41,0,74,0,0,0,0,5,2,0,0,1.5,0,0,1,0,0,1,0,0.01,1,0,3,0,0,40
43.53086333,-80.57853667,493938,211931.9063,11.59707832,4.348888397,18.73905563,-0.030414153,0.371932715,0.128534213,-0.525000036,66.75,12.84722233,19,0,0,0,0,-1024,3,4.800000191,3.5,1.600000024,3.5,1,0,1,0,0,0,2857,4500,-3072,-3072,-3072,-3072,-3072,-3072,-3072,-3072,0,0,-1024,0,0,0,0,0,0,0,0,0,-1024,2,1,41,0,74,0,0,0,0,5,2,0,0,1.5,0,0,1,0,0,1,0,0.01,1,0,3,0,0,40
43.53088833,-80.57852,495297,211933.2969,7.185464382,8.890048981,18.27563477,-0.010507842,0.102279663,0.036483679,-0.4049927,66.75,12.73611069,20,0,0,0,0,-1024,3,4.800000191,3.5,1.600000024,3.5,1,0,1,0,0,0,2857,4500,-3072,-3072,-3072,-3072,-3072,-3072,-3072,-3072,0,0,-1024,0,0,0,0,0,0,0,0,0,-1024,2,1,41,0,74,0,0,0,0,5,2,0,0,1.5,0,0,1,0,0,1,0,0.01,1,0,3,0,0,40
43.530925,-80.578495,495297,211933.2969,5.200442791,11.41697121,19.58226013,0.210270569,0.205771729,0.246831447,-0.4049927,69.875,12.64166641,21,0,0,0,0,-1024,3,4.800000191,3.5,1.600000024,3.5,1,0,1,0,0,0,2857,4500,-3072,-3072,-3072,-3072,-3072,-3072,-3072,-3072,0,0,-1024,0,0,0,0,0,0,0,0,0,-1024,2,1,41,0,74,0,0,0,0,5,2,0,0,1.5,0,0,1,0,0,1,0,0.01,1,0,3,0,0,40
43.53094833,-80.57848,495297,211933.2969,5.055183411,14.88295078,23.62390137,0.218496442,0.190336019,0.426385134,-0.4049927,69.875,12.59722233,22,0,0,0,0,-1024,3,4.800000191,3.5,1.600000024,3.5,1,0,1,0,0,0,2857,4500,-3072,-3072,-3072,-3072,-3072,-3072,-3072,-3072,0,0,-1024,0,0,0,0,0,0,0,0,0,-1024,2,1,41,0,74,0,0,0,0,5,2,0,0,1.5,0,0,1,0,0,1,0,0.01,1,0,3,0,0,40
43.53098333,-80.578455,496655,211934.7969,4.566143036,20.58769417,29.72146416,0.28986007,0.253473222,0.508262336,-0.959985375,69.875,12.62777805,24,0,0,0,0,-1024,3,4.800000191,3.5,1.600000024,3.5,1,0,1,0,0,0,2857,4500,-3072,-3072,-3072,-3072,-3072,-3072,-3072,-3072,0,0,-1024,0,0,0,0,0,0,0,0,0,-1024,2,1,41,0,74,0,0,0,0,5,2,0,0,1.5,0,0,1,0,0,1,0,0.01,1,0,3,0,0,40
43.53100333,-80.57843833,496655,211934.7969,3.296281099,22.2059269,36.9834404,0.268767476,-0.225497574,0.620520592,-0.959985375,69.875,12.89166641,27,0,0,0,0,-1024,3,4.800000191,3.5,1.600000024,3.5,1,0,1,0,0,0,2857,4500,-3072,-3072,-3072,-3072,-3072,-3072,-3072,-3072,0,0,-1024,0,0,0,0,0,0,0,0,0,-1024,2,1,41,0,74,0,0,0,0,5,2,0,0,1.5,0,0,1,0,0,1,0,0.01,1,0,3,0,0,40
43.531025,-80.57842,496655,211934.7969,1.065535545,20.05686569,45.01035309,-0.119626619,-0.061057501,0.612611711,-0.959985375,71,12.85555553,29,0,0,0,0,-1024,3,4.800000191,3.5,1.600000024,3.5,1,0,1,0,0,0,2857,4500,-3072,-3072,-3072,-3072,-3072,-3072,-3072,-3072,0,0,-1024,0,0,0,0,0,0,0,0,0,-1024,2,1,41,0,74,0,0,0,0,5,2,0,0,1.5,0,0,1,0,0,1,0,0.01,1,0,3,0,0,40
43.531045,-80.57839333,498013,211936.2031,-0.889753222,16.36152077,53.24662018,0.117476329,-0.350293249,0.65569979,-0.75,71,12.74166679,29,0,0,0,0,-1024,3,4.800000191,3.5,1.600000024,3.5,1,0,1,0,0,0,2857,4500,-3072,-3072,-3072,-3072,-3072,-3072,-3072,-3072,0,0,-1024,0,0,0,0,0,0,0,0,0,-1024,2,1,41,0,74,0,0,0,0,5,2,0,0,1.5,0,0,1,0,0,1,0,0.01,1,0,3,0,0,40
43.531065,-80.57838333,498013,211936.2031,-1.911584735,11.58561802,61.42845154,-0.04356407,-0.10213384,0.499747187,-0.75,71,13.29722214,35,0,0,0,0,-1024,3,4.800000191,3.5,1.600000024,3.5,1,0,1,0,0,0,2857,4500,-3072,-3072,-3072,-3072,-3072,-3072,-3072,-3072,0,0,-1024,0,0,0,0,0,0,0,0,0,-1024,2,1,41,0,74,0,0,0,0,5,2,0,0,1.5,0,0,1,0,0,1,0,0.01,1,0,3,0,0,40
43.53109167,-80.57834833,498013,211936.2031,1.495796323,1.642199993,68.52958679,0.032062493,-0.131866559,0.032384071,-0.75,66.625,13.79166698,46,0,0,0,0,-1024,3,4.800000191,3.5,1.600000024,3.5,1,0,1,0,0,0,2857,4500,-3072,-3072,-3072,-3072,-3072,-3072,-3072,-3072,0,0,-1024,0,0,0,0,0,0,0,0,0,-1024,2,1,41,0,74,0,0,0,0,5,2,0,0,1.5,0,0,1,0,0,1,0,0.01,1,0,3,0,0,40
43.53113167,-80.578285,499371,211937.5938,2.925559998,-1.898790598,68.9571228,-0.116266832,-0.188338906,0.024523241,-0.615014672,66.625,14.26944447,50,0,0,0,0,-1024,3,4.800000191,3.5,1.600000024,3.5,1,0,1,0,0,0,2857,4500,-3072,-3072,-3072,-3072,-3072,-3072,-3072,-3072,0,0,-1024,0,0,0,0,0,0,0,0,0,-1024,2,1,41,0,74,0,0,0,0,5,2,0,0,1.5,0,0,1,0,0,1,0,0.01,1,0,3,0,0,40
43.53114833,-80.57825667,499371,211937.5938,3.936650991,-3.70324254,70.63371277,0.175735965,-0.169856265,0.171256289,-0.615014672,66.625,14.98055553,56,0,0,0,0,-1024,3,4.800000191,3.5,1.600000024,3.5,1,0,1,0,0,0,2857,4500,-3072,-3072,-3072,-3072,-3072,-3072,-3072,-3072,0,0,-1024,0,0,0,0,0,0,0,0,0,-1024,2,1,42,0,74,0,0,0,0,5,2,0,0,1.5,0,0,1,0,0,1,0,0.01,1,0,3,0,0,40
43.53116833,-80.57820833,499371,211937.5938,4.797721386,-7.598789215,71.3976593,-0.078261644,-0.456575334,-0.068858981,-0.615014672,66.625,15.38888931,59,0,0,0,0,-1024,3,4.800000191,3.5,1.600000024,3.5,1,0,1,0,0,0,2857,4500,-3072,-3072,-3072,-3072,-3072,-3072,-3072,-3072,0,0,-1024,0,0,0,0,0,0,0,0,0,-1024,2,1,42,0,74,0,0,0,0,5,2,0,0,1.5,0,0,1,0,0,1,0,0.01,1,0,3,0,0,40
43.53117833,-80.57817167,500729,211939,5.589849472,-12.47672844,70.4053421,0.098978393,-0.227156624,-0.02434101,-0.69001466,66.5,15.96111107,61,0,0,0,0,-1024,3,4.800000191,3.5,1.600000024,3.5,1,0,1,0,0,0,2857,4500,-3072,-3072,-3072,-3072,-3072,-3072,-3072,-3072,0,0,-1024,0,0,0,0,0,0,0,0,0,-1024,2,1,42,0,74,0,0,0,0,5,2,0,0,1.5,0,0,1,0,0,1,0,0.01,1,0,3,0,0,40
43.53118833,-80.57813333,500729,211939,5.754790783,-16.92055702,69.07666779,0.005291936,-0.385793597,-0.108282268,-0.69001466,66.5,16.15833282,61,0,0,0,0,-1024,3,4.800000191,3.5,1.600000024,3.5,1,0,1,0,0,0,2857,4500,-3072,-3072,-3072,-3072,-3072,-3072,-3072,-3072,0,0,-1024,0,0,0,0,0,0,0,0,0,-1024,2,1,41,0,74,0,0,0,0,5,2,0,0,1.5,0,0,1,0,0,1,0,0.01,1,0,3,0,0,40
43.53120167,-80.578075,500729,211939,6.667258739,-19.33583832,64.63309479,0.136020154,-0.168509007,-0.183413178,-0.69001466,66.5,16.42222214,61,0,0,0,0,-1024,3,4.800000191,3.5,1.600000024,3.5,1,0,1,0,0,0,2857,4500,-3072,-3072,-3072,-3072,-3072,-3072,-3072,-3072,0,0,-1024,0,0,0,0,0,0,0,0,0,-1024,2,1,41,0,74,0,0,0,0,5,2,0,0,1.5,0,0,1,0,0,1,0,0.01,1,0,3,0,0,40
43.53122333,-80.577995,502088,211940.4063,6.908620358,-20.86307335,62.08826065,0.066202201,-0.074705087,-0.135184318,-0.629992723,66.5,16.29444504,61,0,0,0,0,-1024,3,4.800000191,3.5,1.600000024,3.5,1,0,1,0,0,0,2857,4500,-3072,-3072,-3072,-3072,-3072,-3072,-3072,-3072,0,0,-1024,0,0,0,0,0,0,0,0,0,-1024,2,1,41,0,74,0,0,0,0,5,2,0,0,1.5,0,0,1,0,0,1,0,0.01,1,0,3,0,0,40
43.53124167,-80.57793833,502088,211940.4063,7.123781681,-23.20115662,60.07685089,0.114065282,-0.132391289,-0.051803771,-0.629992723,68.875,16.20555496,60,0,0,0,0,-1024,3,4.800000191,3.5,1.600000024,3.5,1,0,1,0,0,0,2857,4500,-3072,-3072,-3072,-3072,-3072,-3072,-3072,-3072,0,0,-1024,0,0,0,0,0,0,0,0,0,-1024,2,1,41,0,74,0,0,0,0,5,2,0,0,1.5,0,0,1,0,0,1,0,0.01,1,0,3,0,0,40
43.53125667,-80.57790167,502088,211940.4063,6.914888859,-25.45866394,57.81459045,0.056687076,-0.300404757,-0.201687619,-0.629992723,68.875,16.06388855,59,0,0,0,0,-1024,3,4.800000191,3.5,1.600000024,3.5,1,0,1,0,0,0,2857,4500,-3072,-3072,-3072,-3072,-3072,-3072,-3072,-3072,0,0,-1024,0,0,0,0,0,0,0,0,0,-1024,2,1,41,0,74,0,0,0,0,5,2,0,0,1.5,0,0,1,0,0,1,0,0.01,1,0,3,0,0,40
43.53127667,-80.57784667,503446,211941.7969,6.336788654,-30.36950493,54.14448166,0.03231442,-0.074910253,-0.267250299,-2.684985399,68.875,15.91666698,59,0,0,0,0,-1024,3,4.800000191,3.5,1.600000024,3.5,1,0,1,0,0,0,2857,4500,-3072,-3072,-3072,-3072,-3072,-3072,-3072,-3072,0,0,-1024,0,0,0,0,0,0,0,0,0,-1024,2,1,41,0,74,0,0,0,0,5,2,0,0,1.5,0,0,1,0,0,1,0,0.01,1,0,3,0,0,40
43.53129,-80.57781,503446,211941.7969,6.375962257,-32.11413574,50.86027527,0.046733927,-0.056242462,-0.208746836,-2.684985399,68.875,15.67222214,59,0,0,0,0,-1024,3,4.800000191,3.5,1.600000024,3.5,1,0,1,0,0,0,2857,4500,-3072,-3072,-3072,-3072,-3072,-3072,-3072,-3072,0,0,-1024,0,0,0,0,0,0,0,0,0,-1024,2,1,41,0,74,0,0,0,0,5,2,0,0,1.5,0,0,1,0,0,1,0,0.01,1,0,3,0,0,40
43.53130333,-80.577775,503446,211941.7969,6.036642075,-31.67803955,48.20728302,-0.033131063,0.052642345,-0.225756407,-2.684985399,69.0625,15.21111107,58,0,0,0,0,-1024,3,4.800000191,3.5,1.600000024,3.5,1,0,1,0,0,0,2857,4500,-3072,-3072,-3072,-3072,-3072,-3072,-3072,-3072,0,0,-1024,0,0,0,0,0,0,0,0,0,-1024,2,1,41,0,74,0,0,0,0,5,2,0,0,1.5,0,0,1,0,0,1,0,0.01,1,0,3,0,0,40
43.53131667,-80.577725,504804,211943.2031,2.954097509,-29.22635651,46.27176285,-0.263139218,0.070423454,-0.230153665,-0.734985352,69.0625,14.73055553,57,0,0,0,0,-1024,3,4.800000191,3.5,1.600000024,3.5,1,0,1,0,0,0,2857,4500,-3072,-3072,-3072,-3072,-3072,-3072,-3072,-3072,0,0,-1024,0,0,0,0,0,0,0,0,0,-1024,2,1,41,0,74,0,0,0,0,5,2,0,0,1.5,0,0,1,0,0,1,0,0.01,1,0,3,0,0,40
43.53133667,-80.57769333,504804,211943.2031,-3.932657957,-27.47457695,43.19789124,-0.284252793,-0.086892091,-0.495131314,-0.734985352,69.0625,14.07499981,54,0,0,0,0,-1024,3,4.800000191,3.5,1.600000024,3.5,1,0,1,0,0,0,2857,4500,-3072,-3072,-3072,-3072,-3072,-3072,-3072,-3072,0,0,-1024,0,0,0,0,0,0,0,0,0,-1024,2,1,41,0,74,0,0,0,0,5,2,0,0,1.5,0,0,1,0,0,1,0,0.01,1,0,3,0,0,40
43.53135,-80.577665,504804,211943.2031,-8.700665474,-30.85436058,37.37924576,-0.066551745,-0.385176033,-0.498582959,-0.734985352,69.0625,13.84166622,52,0,0,0,0,-1024,3,4.800000191,3.5,1.600000024,3.5,1,0,1,0,0,0,2857,4500,-3072,-3072,-3072,-3072,-3072,-3072,-3072,-3072,0,0,-1024,0,0,0,0,0,0,0,0,0,-1024,2,1,41,0,74,0,0,0,0,5,2,0,0,1.5,0,0,1,0,0,1,0,0.01,1,0,3,0,0,40
43.531375,-80.577625,506162,211944.5938,-11.3603754,-34.32099533,31.73868561,0.004570285,-0.336714864,-0.510594487,-0.375,67.25,13.72222233,50,0,0,0,0,-1024,3,4.800000191,3.5,1.600000024,3.5,1,0,1,0,0,0,2857,4500,-3072,-3072,-3072,-3072,-3072,-3072,-3072,-3072,0,0,-1024,0,0,0,0,0,0,0,0,0,-1024,2,1,41,0,74,0,0,0,0,5,2,0,0,1.5,0,0,1,0,0,1,0,0.01,1,0,3,0,0,40
43.53139167,-80.57759833,506162,211944.5938,-12.96102905,-37.31303406,26.75092506,0.059984487,-0.466627419,-0.284560919,-0.375,67.25,13.89444447,47,0,0,0,0,-1024,3,4.800000191,3.5,1.600000024,3.5,1,0,1,0,0,0,2857,4500,-3072,-3072,-3072,-3072,-3072,-3072,-3072,-3072,0,0,-1024,0,0,0,0,0,0,0,0,0,-1024,2,1,41,0,74,0,0,0,0,5,2,0,0,1.5,0,0,1,0,0,1,0,0.01,1,0,3,0,0,40
43.53140833,-80.577575,506162,211944.5938,-13.116539,-40.9870224,22.80506134,0.170140356,-0.196104407,-0.20664002,-0.375,67.25,13.06944466,42,0,0,0,0,-1024,3,4.800000191,3.5,1.600000024,3.5,1,0,1,0,0,0,2857,4500,-3072,-3072,-3072,-3072,-3072,-3072,-3072,-3072,0,0,-1024,0,0,0,0,0,0,0,0,0,-1024,2,1,41,0,74,0,0,0,0,5,2,0,0,1.5,0,0,1,0,0,1,0,0.01,1,0,3,0,0,40
43.53143333,-80.57754667,507520,211946,-11.72858047,-43.45869446,17.60646248,0.495533198,-0.301556498,-0.255388975,-0.495007336,67.25,12.375,39,0,0,0,0,-1024,3,4.800000191,3.5,1.600000024,3.5,1,0,1,0,0,0,2857,4500,-3072,-3072,-3072,-3072,-3072,-3072,-3072,-3072,0,0,-1024,0,0,0,0,0,0,0,0,0,-1024,2,1,41,0,74,0,0,0,0,5,2,0,0,1.5,0,0,1,0,0,1,0,0.01,1,0,3,0,0,40
43.53145167,-80.57752833,507520,211946,-11.02260208,-47.33126068,9.691464424,0.3495754,-0.303744793,-0.504355967,-0.495007336,65.5,11.84444427,36,0,0,0,0,-1024,3,4.800000191,3.5,1.600000024,3.5,1,0,1,0,0,0,2857,4500,-3072,-3072,-3072,-3072,-3072,-3072,-3072,-3072,0,0,-1024,0,0,0,0,0,0,0,0,0,-1024,2,1,41,0,74,0,0,0,0,5,2,0,0,1.5,0,0,1,0,0,1,0,0.01,1,0,3,0,0,40
43.53146833,-80.57751333,507520,211946,-13.71665192,-44.11501312,-9.416652679,0.371822059,-0.106815934,-0.66585052,-0.495007336,65.5,11.10833359,28,0,0,0,0,-1024,3,4.800000191,3.5,1.600000024,3.5,1,0,1,0,0,0,2857,4500,-3072,-3072,-3072,-3072,-3072,-3072,-3072,-3072,0,0,-1024,0,0,0,0,0,0,0,0,0,-1024,2,1,41,0,74,0,0,0,0,5,2,0,0,1.5,0,0,1,0,0,1,0,0.01,1,0,3,0,0,40
43.53152167,-80.57748833,508879,211947.4063,-14.51252747,-43.94191742,-18.77545547,0.514919281,-0.322754174,-0.468712449,-1.184985399,65.5,10.46388912,8,0,0,0,0,-1024,3,4.800000191,3.5,1.600000024,3.5,1,0,1,0,0,0,2857,4500,-3072,-3072,-3072,-3072,-3072,-3072,-3072,-3072,0,0,-1024,0,0,0,0,0,0,0,0,0,-1024,2,1,41,0,74,0,0,0,0,5,2,0,0,1.5,0,0,1,0,0,1,0,0.01,1,0,3,0,0,40
43.53154,-80.57749,508879,211947.4063,-13.44997787,-42.27710724,-28.37513542,0.687327027,-0.011241181,-0.395558894,-1.184985399,65.5,10.88055515,352,0,0,0,0,-1024,3,4.800000191,3.5,1.600000024,3.5,1,0,1,0,0,0,2857,4500,-3072,-3072,-3072,-3072,-3072,-3072,-3072,-3072,0,0,-1024,0,0,0,0,0,0,0,0,0,-1024,2,1,41,0,74,0,0,0,0,5,2,0,0,1.5,0,0,1,0,0,1,0,0.01,1,0,3,0,0,40
43.53157167,-80.57749833,508879,211947.4063,-12.03141499,-38.05723953,-38.64915466,0.465488613,0.356464654,-0.55806005,-1.184985399,63.375,11.26944447,345,0,0,0,0,-1024,3,4.800000191,3.5,1.600000024,3.5,1,0,1,0,0,0,2857,4500,-3072,-3072,-3072,-3072,-3072,-3072,-3072,-3072,0,0,-1024,0,0,0,0,0,0,0,0,0,-1024,2,1,41,0,74,0,0,0,0,5,2,0,0,1.5,0,0,1,0,0,1,0,0.01,1,0,3,0,0,40
43.53159167,-80.57751,510237,211948.7969,-9.229784966,-34.55713654,-48.84498978,0.483143508,0.091884293,-0.456587613,-0.479992688,63.375,11.26111126,332,0,0,0,0,-1024,3,4.800000191,3.5,1.600000024,3.5,1,0,1,0,0,0,2857,4500,-3072,-3072,-3072,-3072,-3072,-3072,-3072,-3072,0,0,-1024,0,0,0,0,0,0,0,0,0,-1024,2,1,41,0,74,0,0,0,0,5,2,0,0,1.5,0,0,1,0,0,1,0,0.01,1,0,3,0,0,40
43.53160833,-80.57752667,510237,211948.7969,-5.398965359,-33.09115219,-57.42024994,0.421962798,0.04662925,-0.365418345,-0.479992688,63.375,11.21944427,324,0,0,0,0,-1024,3,4.800000191,3.5,1.600000024,3.5,1,0,1,0,0,0,2857,4500,-3072,-3072,-3072,-3072,-3072,-3072,-3072,-3072,0,0,-1024,0,0,0,0,0,0,0,0,0,-1024,2,1,42,0,74,0,0,0,0,5,2,0,0,1.5,0,0,1,0,0,1,0,0.01,1,0,3,0,0,40
43.53162667,-80.57755833,510237,211948.7969,-1.268915415,-33.39858246,-64.65298462,0.336029291,-0.051286273,-0.26225552,-0.479992688,63.375,11.21388912,313,0,0,0,0,-1024,3,4.800000191,3.5,1.600000024,3.5,1,0,1,0,0,0,2857,4500,-3072,-3072,-3072,-3072,-3072,-3072,-3072,-3072,0,0,-1024,0,0,0,0,0,0,0,0,0,-1024,2,1,42,0,74,0,0,0,0,5,2,0,0,1.5,0,0,1,0,0,1,0,0.01,1,0,3,0,0,40
43.53163333,-80.57758333,511595,211950.2031,1.57199955,-34.96901703,-70.03797913,0.406675488,-0.009000522,-0.180823639,0.195007339,61.375,10.84166622,300,0,0,0,0,-1024,3,4.800000191,3.5,1.600000024,3.5,1,0,1,0,0,0,2857,4500,-3072,-3072,-3072,-3072,-3072,-3072,-3072,-3072,0,0,-1024,0,0,0,0,0,0,0,0,0,-1024,2,1,42,0,74,0,0,0,0,5,2,0,0,1.5,0,0,1,0,0,1,0,0.01,1,0,3,0,0,40
43.53164,-80.57760833,511595,211950.2031,3.766964436,-34.18177032,-75.40809631,0.349525928,0.225887626,-0.319634974,0.195007339,61.375,10.86388874,289,0,0,0,0,-1024,3,4.800000191,3.5,1.600000024,3.5,1,0,1,0,0,0,2857,4500,-3072,-3072,-3072,-3072,-3072,-3072,-3072,-3072,0,0,-1024,0,0,0,0,0,0,0,0,0,-1024,2,1,42,0,74,0,0,0,0,5,2,0,0,1.5,0,0,1,0,0,1,0,0.01,1,0,3,0,0,40
43.53164167,-80.57765333,511595,211950.2031,4.396363258,-33.5918808,-82.18526459,0.312130213,0.193493217,-0.478055358,0.195007339,61.375,10.88333321,281,0,0,0,0,-1024,3,4.800000191,3.5,1.600000024,3.5,1,0,1,0,0,0,2857,4500,-3072,-3072,-3072,-3072,-3072,-3072,-3072,-3072,0,0,-1024,0,0,0,0,0,0,0,0,0,-1024,2,1,42,0,74,0,0,0,0,5,2,0,0,1.5,0,0,1,0,0,1,0,0.01,1,0,3,0,0,40
43.53163833,-80.57768167,512953,211951.5938,3.932403564,-33.23141098,-91.08562469,0.440024853,0.050988495,-0.51877135,-0.7799927,61.375,10.65833378,269,0,0,0,0,-1024,3,4.800000191,3.5,1.600000024,3.5,1,0,1,0,0,0,2857,4500,-3072,-3072,-3072,-3072,-3072,-3072,-3072,-3072,0,0,-1024,0,0,0,0,0,0,0,0,0,-1024,2,1,42,0,74,0,0,0,0,5,2,0,0,1.5,0,0,1,0,0,1,0,0.01,1,0,3,0,0,40
43.53163167,-80.57772333,512953,211951.5938,2.857220888,-29.29040146,-106.1854782,0.165192783,0.351224273,-0.518922925,-0.7799927,61.625,10.25555515,255,0,0,0,0,-1024,3,4.800000191,3.5,1.600000024,3.5,1,0,1,0,0,0,2857,4500,-3072,-3072,-3072,-3072,-3072,-3072,-3072,-3072,0,0,-1024,0,0,0,0,0,0,0,0,0,-1024,2,1,40,0,74,0,0,0,0,5,2,0,0,1.5,0,0,1,0,0,1,0,0.01,1,0,3,0,0,40
43.53161667,-80.57777333,512953,211951.5938,1.967250347,-22.74852371,-112.4755173,0.094991066,0.569929361,-0.518387079,-0.7799927,61.625,10.04444408,244,0,0,0,0,-1024,3,4.800000191,3.5,1.600000024,3.5,1,0,1,0,0,0,2857,4500,-3072,-3072,-3072,-3072,-3072,-3072,-3072,-3072,0,0,-1024,0,0,0,0,0,0,0,0,0,-1024,2,1,40,0,74,0,0,0,0,5,2,0,0,1.5,0,0,1,0,0,1,0,0.01,1,0,3,0,0,40
43.53160167,-80.57780833,514312,211953,0.576837122,-14.57394981,-119.0184021,-0.185164824,0.433040291,-0.503603518,-0.390014678,61.625,9.969444275,236,0,0,0,0,-1024,3,4.800000191,3.5,1.600000024,3.5,1,0,1,0,0,0,2857,4500,-3072,-3072,-3072,-3072,-3072,-3072,-3072,-3072,0,0,-1024,0,0,0,0,0,0,0,0,0,-1024,2,1,40,0,74,0,0,0,0,5,2,0,0,1.5,0,0,1,0,0,1,0,0.01,1,0,3,0,0,40
43.53159167,-80.57782833,514312,211953,-0.862889946,-8.989555359,-124.0397491,0.078491062,0.307885468,-0.243012667,-0.390014678,63.125,10.93611145,223,0,0,0,0,-1024,3,4.800000191,3.5,1.600000024,3.5,1,0,1,0,0,0,2857,4500,-3072,-3072,-3072,-3072,-3072,-3072,-3072,-3072,0,0,-1024,0,0,0,0,0,0,0,0,0,-1024,2,1,41,0,74,0,0,0,0,5,2,0,0,1.5,0,0,1,0,0,1,0,0.01,1,0,3,0,0,40
