lat,lon,time,pitch,roll,yaw,pitch_rate,roll_rate,yaw_rate,kd_gain,kp_gain,ki_gain,ground_speed,altitude,heading,pitch_setpoint,roll_setpoint,heading_setpoint,throttle_setpoint,flap_setpoint,altitude_setpoint,int_pitch_setpoint,int_roll_setpoint,int_yaw_setpoint,lastCommandSent,errorCodes,cameraStatus,waypointIndex,editing_gain,gpsStatus,batteryLevel,waypointCount,airspeed
,,,,,,,,,,,,,,,,,,,,,,,,,,,,,,,,
43.5307533335, -80.57742833372127, 214042.09375, -2.300236940383911, 0.9730175137519836, -40.64306640625, 0.20386305451393127, -0.40657275915145874, -0.07173357158899307, 20.149999618530273, 5.0, 0.0, 0.0, 0.8125, 19, 0, -90, 14, -93, 100, 0, 40, -2637, 0, 5200, 2064, 0, 156, 0, 24, 60, 0, 51)
43.5307533335, -80.57742833372127, 214042.296875, -5.04511022567749, 0.7517246007919312, -42.035003662109375, 0.5166946649551392, -0.10469339787960052, 0.026949958875775337, 20.149999618530273, 5.0, 0.0, 0.0, 0.8125, 19, 0, -90, 14, -1402, 100, 0, -42, -2652, 0, 5200, 2064, 0, 156, 0, 24, 60, 0, 52)
43.5307533335, -80.57742833372127, 214042.59375, -3.2635018825531006, -0.23738153278827667, -44.170040130615234, -0.4991321265697479, 0.651271641254425, -0.21366463601589203, 20.149999618530273, 5.0, 0.0, 0.0, 0.8125, 19, -2, -94, 14, -1406, 100, 0, -116, -2778, 0, 5200, 2064, 0, 156, 0, 24, 60, 0, 51)
43.5307533335, -80.57742833372127, 214042.796875, -4.005574703216553, 3.507876396179199, -46.93456268310547, 0.7070170640945435, -0.0506252758204937, -0.16479681432247162, 20.149999618530273, 5.0, 0.0, 0.0, 0.8125, 19, -348, -96, 14, -1413, 100, 0, -17790, -2824, 0, 5200, 2064, 0, 156, 0, 24, 60, 0, 52)
43.5307533335, -80.57742833372127, 214043.09375, -6.386664867401123, 1.2883614301681519, -49.1159782409668, -0.22948068380355835, 0.37240663170814514, -0.20459966361522675, 20.149999618530273, 5.0, 0.0, 0.0, 0.625, 19, -351, -100, 14, -1418, 100, 0, -17956, -2945, 0, 5200, 2064, 0, 156, 0, 24, 60, 0, 1)
43.5307533335, -80.57742833372127, 214043.296875, -7.87258768081665, 2.533299207687378, -49.23162078857422, 0.2296934425830841, -0.5072916150093079, 0.2449658364057541, 20.149999618530273, 5.0, 0.0, 0.0, 0.625, 19, -352, -96, 14, -1423, 100, 0, -18024, -2833, 0, 5200, 2064, 0, 156, 0, 24, 60, 0, 51)
43.5307600002, -80.57733666704904, 214043.40625, -3.467475175857544, 0.2126060277223587, -44.840789794921875, 0.07864560186862946, -0.30427980422973633, 0.15301376581192017, 20.149999618530273, 5.0, 0.0, 0.0, 0.625, 19, -357, -96, 14, -1429, 100, 0, -18311, -2818, 0, 5200, 2064, 0, 156, 0, 24, 60, 0, 5)
43.5307616669, -80.57735500038301, 214043.796875, -3.029282331466675, -2.5728049278259277, -40.507938385009766, -0.22189746797084808, 0.5465466380119324, 0.22913922369480133, 20.149999618530273, 5.0, 0.0, 3.402777671813965, 0.625, 280, -354, -91, 5, -1430, 100, 0, -18090, -2688, 0, 5200, 2064, 0, 156, 0, 24, 60, 0, 5)
43.5307633335, -80.57736333371625, 214044.0, -6.974345684051514, -2.4636693000793457, -39.67319107055664, -0.3684682250022888, -0.1995161473751068, -0.12323392927646637, 20.149999618530273, 5.0, 0.0, 3.875, 0.625, 281, -360, -97, 7, -1431, 100, 0, -18398, -2854, 0, 5200, 2064, 0, 156, 0, 24, 60, 0, 51)
43.5307666669, -80.5773733337172, 214044.203125, -3.251573085784912, 1.2694590091705322, -44.4946174621582, 0.9932805299758911, 0.6155093908309937, -0.434174507856369, 20.149999618530273, 5.0, 0.0, 4.963889122009277, 0.1875, 283, -364, -99, 8, -1430, 100, 0, -18642, -2917, 0, 5200, 2064, 0, 156, 0, 25, 60, 0, 11)
43.5307733335, -80.57739500038248, 214044.5, 7.690066814422607, 0.12017524987459183, -48.46437072753906, 1.3080133199691772, -0.32909223437309265, -0.12614700198173523, 20.149999618530273, 5.0, 0.0, 6.8416666984558105, 0.1875, 284, -365, -1016, 9, -1430, 100, 0, -18726, -29751, 0, 5200, 2064, 0, 156, 0, 25, 60, 0, 0)
43.5307783335, -80.57741333371862, 214044.703125, 18.564903259277344, -7.821169853210449, -49.74285125732422, 0.5953078269958496, -1.212125539779663, 0.04986896365880966, 20.149999618530273, 5.0, 0.0, 8.119444847106934, 0.1875, 286, -359, -99, 11, -1430, 100, 0, -18246, -2908, 0, 5200, 2064, 0, 156, 0, 25, 60, 0, 50)
43.5307883335, -80.57744333371618, 214045.0, 14.05180835723877, -25.750118255615234, -48.58073043823242, -0.8730052709579468, -0.9114081859588623, 0.0816129818558693, 20.149999618530273, 5.0, 0.0, 9.072221755981445, 0.1875, 288, 355, -1019, 12, -1420, 100, 0, 18723, -29841, 0, 5200, 2064, 0, 156, 0, 25, 60, 0, 49)
43.5307950002, -80.5774650003858, 214045.203125, 5.844875812530518, -20.90633773803711, -45.19937515258789, -0.2072630524635315, 1.2645912170410156, -0.1627727895975113, 20.149999618530273, 5.0, 0.0, 9.51111125946045, 0.125, 291, 350, -1035, 14, -1423, 100, 0, 18327, -30298, 0, 5200, 2064, 0, 156, 0, 25, 60, 0, 0)
43.5308016669, -80.577498333736, 214045.40625, 9.91342544555664, -4.59124231338501, -50.85954666137695, 0.847465455532074, 0.9264507293701172, -0.5296894907951355, 20.149999618530273, 5.0, 0.0, 10.11111068725586, 0.125, 293, -351, -1025, 16, -1423, 100, 0, -17928, -30008, 0, 5200, 2064, 0, 156, 0, 25, 60, 0, 0)
43.5308116669, -80.5775216670149, 214045.703125, 20.18628692626953, 0.3567753732204437, -57.56591796875, 0.43293046951293945, 0.1588074415922165, -0.43820929527282715, 20.149999618530273, 5.0, 0.0, 10.516666412353516, 0.125, 291, 351, -1027, 17, -1420, 100, 0, 17981, -30062, 0, 5200, 2064, 0, 156, 0, 25, 60, 0, 0)
43.5308183335, -80.57754833368236, 214045.90625, 22.311494827270508, 4.571837902069092, -59.761474609375, -0.12891075015068054, 0.3304307460784912, -0.08499431610107422, 20.149999618530273, 5.0, 0.0, 10.958333015441895, 0.125, 288, 352, -1020, 19, -1415, 100, 0, 18138, -29845, 0, 5200, 2064, 0, 156, 0, 25, 60, 0, 6)
43.5308233335, -80.57757500035028, 214046.09375, 22.682567596435547, 8.427742004394531, -58.490928649902344, 0.07686780393123627, 0.2773429751396179, 0.25397491455078125, 20.149999618530273, 5.0, 0.0, 11.188888549804688, 3.5, 285, 354, -1019, 21, -1413, 100, 0, 18322, -29835, 0, 5200, 2064, 0, 156, 0, 25, 60, 0, 0)
43.5308316669, -80.57761333368155, 214046.40625, 21.795034408569336, 13.787595748901367, -55.36893081665039, 0.05983154475688934, 0.31642037630081177, 0.19752827286720276, 20.149999618530273, 5.0, 0.0, 10.941666603088379, 3.5, 285, 354, -97, 22, -1410, 100, 0, 18403, -2854, 0, 5200, 2064, 0, 156, 0, 25, 60, 0, 0)
43.5308366668, -80.57764000035385, 214046.59375, 20.316329956054688, 17.272506713867188, -52.90127944946289, -0.1010683923959732, 0.19555288553237915, 0.2556689381599426, 20.149999618530273, 5.0, 0.0, 10.824999809265137, 3.5, 286, 355, -94, 23, -1412, 100, 0, 18545, -2757, 0, 5200, 2064, 0, 156, 0, 25, 60, 0, 0)
43.5308433335, -80.5776650003565, 214046.796875, 17.49213981628418, 18.360258102416992, -50.7563362121582, -0.16150467097759247, -0.21094606816768646, 0.16573286056518555, 20.149999618530273, 5.0, 0.0, 10.469444274902344, 3.5, 287, 354, -87, 25, -1415, 100, 0, 18492, -2573, 0, 5200, 2064, 0, 156, 0, 26, 60, 0, 0)
43.5308516668, -80.57770166704321, 214047.09375, 14.995003700256348, 13.218029022216797, -48.27164840698242, -0.2692753076553345, -0.22097423672676086, 0.21671362221240997, 20.149999618530273, 5.0, 0.0, 10.338889122009277, 10.9375, 287, 353, -87, 26, -1418, 100, 0, 18372, -2552, 0, 5200, 2064, 0, 156, 0, 26, 60, 0, 0)
43.5308600001, -80.57772833370836, 214047.296875, 11.908171653747559, 11.846685409545898, -45.775848388671875, -0.2737065851688385, -0.09450102597475052, 0.23259513080120087, 20.149999618530273, 5.0, 0.0, 10.51388931274414, 10.9375, 287, 358, -97, 27, -1417, 100, 0, 18574, -2863, 0, 5200, 2064, 0, 156, 0, 26, 60, 0, 0)
43.5308683335, -80.57775833371367, 214047.5, 5.400792121887207, 13.280860900878906, -44.88873291015625, -0.5841890573501587, 0.08347171545028687, 0.046059418469667435, 20.149999618530273, 5.0, 0.0, 10.802778244018555, 10.9375, 288, 356, -93, 28, -1416, 100, 0, 18493, -2748, 0, 5200, 2064, 0, 156, 0, 26, 60, 0, 0)
43.5308816668, -80.5778033337146, 214047.796875, 0.2540898323059082, 11.919001579284668, -46.2241096496582, -0.30741214752197266, -0.31051379442214966, -0.10436245054006577, 20.149999618530273, 5.0, 0.0, 11.255555152893066, 10.9375, 290, 354, -95, 29, -1416, 100, 0, 18372, -2794, 0, 5200, 2064, 0, 156, 0, 26, 60, 0, 0)
43.5308933335, -80.57783333373567, 214048.0, -0.480739951133728, 12.090764999389648, -46.67115020751953, 0.12611348927021027, 0.11210449039936066, 0.066710464656353, 20.149999618530273, 5.0, 0.0, 11.597222328186035, 10.9375, 291, 352, -91, 30, -1417, 100, 0, 18271, -2673, 0, 5200, 2064, 0, 156, 0, 26, 60, 0, 0)
43.5309050002, -80.57786333373612, 214048.203125, 2.92618465423584, 10.880589485168457, -43.53296661376953, 0.452946275472641, -0.19155871868133545, 0.31513792276382446, 20.149999618530273, 5.0, 0.0, 11.808333396911621, 14.3125, 293, 350, -95, 31, -1417, 100, 0, 18139, -2794, 0, 5200, 2064, 0, 156, 0, 26, 60, 0, 0)
43.5309166668, -80.57790833373825, 214048.40625, 11.301064491271973, 7.569699287414551, -39.47255325317383, 0.7840065956115723, -0.10821468383073807, 0.1037837490439415, 20.149999618530273, 5.0, 0.0, 12.413888931274414, 14.3125, 296, 0, -97, 31, -1415, 100, 0, 124, -2845, 0, 5200, 2064, 0, 156, 0, 26, 60, 0, 0)
43.5309350001, -80.5779416670693, 214048.703125, 22.428571701049805, 7.39252233505249, -37.371246337890625, 0.7978166341781616, -0.10385419428348541, 0.10418059676885605, 20.149999618530273, 5.0, 0.0, 12.922222137451172, 14.3125, 297, 354, -98, 32, -1413, 100, 0, 18312, -2890, 0, 5200, 2064, 0, 156, 0, 26, 60, 0, 0)
43.5309583335, -80.5780116670338, 214049.09375, 14.334723472595215, 12.3958158493042, -35.86284637451172, -0.7426007986068726, 0.40347710251808167, 0.4042564034461975, 20.149999618530273, 5.0, 0.0, 13.188888549804688, 19.125, 298, 360, -97, 33, -1419, 100, 0, 18716, -2854, 0, 5200, 2064, 0, 156, 0, 26, 60, 0, 0)
43.5309783335, -80.5780600003675, 214049.40625, 2.091780424118042, 16.680950164794922, -33.61952590942383, -0.6840807795524597, 0.34169670939445496, 0.2726152241230011, 20.149999618530273, 5.0, 0.0, 13.13888931274414, 19.125, 299, 354, -97, 34, -1417, 100, 0, 18468, -2845, 0, 5200, 2064, 0, 156, 0, 26, 60, 0, 0)
43.5309916668, -80.5780900003733, 214049.59375, 1.7501323223114014, 19.387422561645508, -31.698383331298828, 0.7212496399879456, 0.09425316751003265, 0.07753381878137589, 20.149999618530273, 5.0, 0.0, 12.98611068725586, 19.125, 301, 350, -96, 34, -1418, 100, 0, 18309, -2821, 0, 5200, 2064, 0, 156, 0, 26, 60, 0, 0)
43.5310050002, -80.57811833370445, 214049.796875, 9.794086456298828, 18.005887985229492, -28.83549690246582, 0.660480797290802, -0.2513737976551056, 0.030906734988093376, 20.149999618530273, 5.0, 0.0, 12.719444274902344, 19.125, 304, 351, -91, 34, -1416, 100, 0, 18346, -2670, 0, 5200, 2064, 0, 156, 0, 26, 60, 0, 0)
43.5310283335, -80.57816000037613, 214050.09375, 16.052175521850586, 16.35293960571289, -24.31338119506836, 0.4636702537536621, -0.20685939490795135, 0.18167881667613983, 20.149999618530273, 5.0, 0.0, 13.344444274902344, 21.5625, 307, 352, -93, 34, -1415, 100, 0, 18350, -2727, 0, 5200, 2064, 0, 156, 0, 26, 60, 0, 0)
43.5310450002, -80.57818500033355, 214050.296875, 20.762765884399414, 17.57332992553711, -18.304540634155273, 0.47598519921302795, -0.004740607924759388, 0.37258052825927734, 20.149999618530273, 5.0, 0.0, 13.483333587646484, 21.5625, 309, 353, -92, 34, -1412, 100, 0, 18442, -2709, 0, 5200, 2064, 0, 156, 0, 26, 60, 0, 0)
43.5310633335, -80.57821000033388, 214050.5, 23.551401138305664, 18.871379852294922, -13.590742111206055, 0.214103564620018, 0.13809321820735931, 0.312833309173584, 20.149999618530273, 5.0, 0.0, 13.147222518920898, 21.5625, 312, 354, -92, 34, -1412, 100, 0, 18492, -2700, 0, 5200, 2064, 0, 156, 0, 26, 60, 0, 1)
43.5310900002, -80.5782400003358, 214050.796875, 24.88290786743164, 20.317537307739258, -9.914008140563965, 0.017578206956386566, -0.32057738304138184, 0.012355503626167774, 20.149999618530273, 5.0, 0.0, 12.597222328186035, 21.5625, 314, 355, -90, 34, -1410, 100, 0, 18623, -2643, 0, 5200, 2064, 0, 156, 0, 26, 60, 0, 0)
43.5311266668, -80.57827000033357, 214051.203125, 21.4955997467041, 13.709920883178711, -9.1655855178833, -0.2993014454841614, -0.3464740514755249, 0.046246375888586044, 20.149999618530273, 5.0, 0.0, 11.425000190734863, 28.5, 322, 355, -88, 33, -1409, 100, 0, 18485, -2603, 0, 5200, 2064, 0, 156, 0, 26, 60, 0, 0)
43.5311583335, -80.57828166700007, 214051.5, 18.52297592163086, 11.481822967529297, -7.286308765411377, -0.30241209268569946, -0.2713915705680847, 0.17579211294651031, 20.149999618530273, 5.0, 0.0, 10.774999618530273, 28.5, 329, 355, -89, 32, -1410, 100, 0, 18439, -2630, 0, 5200, 2064, 0, 156, 0, 26, 60, 0, 0)
43.5312000002, -80.57829000033622, 214051.90625, 13.8701753616333, 8.028226852416992, -1.2698339223861694, -0.11202647536993027, -0.039825499057769775, 0.14344578981399536, 20.149999618530273, 5.0, 0.0, 10.68055534362793, 28.5, 334, 355, -92, 30, -1410, 100, 0, 18353, -2694, 0, 5200, 2064, 0, 156, 0, 26, 60, 0, 0)
43.5312266669, -80.57829166700249, 214052.203125, 12.457033157348633, 7.658322811126709, -0.2640330493450165, -0.12419434636831284, -0.0640183612704277, -0.0022513638250529766, 20.149999618530273, 5.0, 0.0, 10.516666412353516, 34.25, 338, 355, -92, 30, -1408, 100, 0, 18353, -2700, 0, 5200, 2064, 0, 156, 0, 26, 60, 0, 0)
43.5312450002, -80.57829500033598, 214052.40625, 10.56143856048584, 6.540991306304932, 0.15744738280773163, -0.1753544807434082, -0.072021484375, -0.005702697206288576, 20.149999618530273, 5.0, 0.0, 10.574999809265137, 34.25, 341, 356, -93, 29, -1407, 100, 0, 18363, -2721, 0, 5200, 2064, 0, 156, 0, 26, 60, 0, 0)
43.5312650002, -80.57829500033598, 214052.59375, 7.486706733703613, 4.863217353820801, 0.35058167576789856, -0.17033275961875916, -0.2137993425130844, 0.09808553010225296, 20.149999618530273, 5.0, 0.0, 10.644444465637207, 34.25, 344, 356, -92, 28, -1407, 100, 0, 18349, -2715, 0, 5200, 2064, 0, 156, 0, 26, 60, 0, 0)
43.5312966669, -80.57829333366924, 214052.90625, 3.928088426589966, 3.6440091133117676, 0.8230670690536499, -0.2878764569759369, -0.03420377895236015, 0.028434813022613525, 20.149999618530273, 5.0, 0.0, 10.688888549804688, 34.25, 346, 357, -92, 28, -1406, 100, 0, 18340, -2703, 0, 5200, 2064, 0, 156, 0, 26, 60, 0, 1)
43.5313433335, -80.57828833366948, 214053.296875, -0.9284737706184387, -1.1162924766540527, 0.7398304343223572, 0.06339738517999649, -0.25829094648361206, -0.006510836072266102, 20.149999618530273, 5.0, 0.0, 11.277777671813965, 38.875, 350, 4, -87, 26, -1406, 100, 0, 264, -2549, 0, 5200, 2064, 0, 156, 0, 26, 60, 0, 0)
43.5313783335, -80.57828500033635, 214053.59375, 0.9841507077217102, -8.398723602294922, 0.21854862570762634, 0.0670192763209343, -0.612486720085144, -0.044135890901088715, 20.149999618530273, 5.0, 0.0, 11.677778244018555, 38.875, 353, 3, -87, 25, -1406, 100, 0, 337, -2549, 0, 5200, 2064, 0, 156, 0, 26, 60, 0, 0)
43.5314566668, -80.57828500033635, 214054.296875, 20.892200469970703, -29.111831665039062, -9.020792007446289, 0.66848224401474, -0.5055708885192871, -0.1027868390083313, 20.149999618530273, 5.0, 0.0, 11.911110877990723, 38.625, 359, 2, -88, 23, -1406, 100, 0, 726, -2594, 0, 5200, 2064, 0, 156, 0, 26, 60, 0, 1)
43.5314783335, -80.57828666700297, 214054.5, 23.6871395111084, -36.7850456237793, -14.790703773498535, 0.3178357481956482, -0.2909615635871887, -0.3694864809513092, 20.149999618530273, 5.0, 0.0, 11.658333778381348, 38.625, 360, 4, -90, 23, -1406, 100, 0, 946, -2640, 0, 5200, 2064, 0, 156, 0, 25, 60, 0, 49)
43.5314983335, -80.57829333366924, 214054.703125, 24.110933303833008, -43.72399139404297, -20.047914505004883, 0.37974339723587036, -0.5586437582969666, -0.3874911963939667, 20.149999618530273, 5.0, 0.0, 10.94444465637207, 38.625, 357, 353, -93, 22, -1406, 100, 0, 18982, -2721, 0, 5200, 2064, 0, 156, 0, 25, 60, 0, 0)
43.5315300001, -80.57830166700575, 214055.0, 22.315628051757812, -48.371055603027344, -26.083433151245117, 0.39817744493484497, -0.031264301389455795, -0.2511134445667267, 20.149999618530273, 5.0, 0.0, 10.816666603088379, 43.5, 355, 4, -97, 22, -1406, 100, 0, 1202, -2845, 0, 5200, 2064, 0, 156, 0, 25, 60, 0, 0)
43.5315500001, -80.57830666700562, 214055.203125, 17.75929069519043, -50.63396453857422, -35.222991943359375, 0.32581087946891785, -0.11131642758846283, -0.822785496711731, 20.149999618530273, 5.0, 0.0, 10.602777481079102, 43.5, 353, 4, -97, 22, -1406, 100, 0, 1234, -2851, 0, 5200, 2064, 0, 156, 0, 25, 60, 0, 0)
43.5315766668, -80.57832333367502, 214055.40625, 12.063618659973145, -54.137367248535156, -45.6702880859375, 0.28757524490356445, 0.08148574829101562, -0.5842630863189697, 20.149999618530273, 5.0, 0.0, 10.63888931274414, 43.5, 350, 4, -98, 21, -1406, 100, 0, 1298, -2869, 0, 5200, 2064, 0, 156, 0, 25, 60, 0, 0)
43.5315933335, -80.57833166700827, 214055.703125, 8.411133766174316, -53.9665412902832, -55.25471115112305, 0.27125445008277893, 0.12513521313667297, -0.7434837222099304, 20.149999618530273, 5.0, 0.0, 10.01111125946045, 43.5, 348, 3, -100, 21, -1406, 100, 0, 1237, -2945, 0, 5200, 2064, 0, 156, 0, 25, 60, 0, 1)
43.5316083335, -80.57833999980114, 214055.90625, 4.727402687072754, -53.767642974853516, -65.7402114868164, 0.3281260132789612, -0.059721820056438446, -0.782880961894989, 20.149999618530273, 5.0, 0.0, 9.380555152893066, 43.5, 345, 1, -100, 21, -1406, 100, 0, 1128, -2951, 0, 5200, 2064, 0, 156, 0, 25, 60, 0, 0)
43.5316316668, -80.57835666646861, 214056.203125, 2.6849308013916016, -52.641639709472656, -78.5915298461914, 0.7458977699279785, 0.12570156157016754, -0.5540919303894043, 20.149999618530273, 5.0, 0.0, 9.038888931274414, 49.75, 343, 0, -98, 21, -1405, 100, 0, 1028, -2881, 0, 5200, 2064, 0, 156, 0, 25, 60, 0, 0)
43.5316500001, -80.57837499980232, 214056.5, 2.8102004528045654, -51.24736404418945, -92.2262191772461, 0.5697283744812012, 0.22347110509872437, -0.434950590133667, 20.149999618530273, 5.0, 0.0, 8.158333778381348, 49.75, 338, 0, -1019, 21, -91, 100, 0, 1050, -29823, 0, 5200, 2064, 0, 156, 0, 25, 60, 0, 0)
43.5316583335, -80.57838833313484, 214056.703125, 2.9757347106933594, -49.699676513671875, -103.8709945678711, 0.6764827966690063, 0.23707199096679688, -0.44835537672042847, 20.149999618530273, 5.0, 0.0, 7.25, 49.75, 310, 0, -1018, 21, -91, 100, 0, 976, -29799, 0, 5200, 2064, 0, 156, 0, 24, 60, 0, 0)
43.5316666673, -80.57839999980449, 214056.90625, 3.011500120162964, -46.90033721923828, -113.09291076660156, 0.4996482729911804, 0.22639331221580505, -0.45562800765037537, 20.149999618530273, 5.0, 0.0, 6.27222204208374, 49.75, 308, 1, -1017, 21, -91, 100, 0, 1022, -29769, 0, 5200, 2064, 0, 156, 0, 24, 60, 0, 0)
43.5316700007, -80.57841666647388, 214057.09375, 2.3259425163269043, -43.69010925292969, -121.60577392578125, 0.21894587576389313, 0.5041522979736328, -0.5072839856147766, 20.149999618530273, 5.0, 0.0, 4.155555725097656, 51.9375, 262, 351, -1021, 21, -91, 100, 0, 18882, -29875, 0, 5200, 2064, 0, 156, 0, 25, 60, 0, 1)
43.5316650001, -80.57842666647339, 214057.40625, 0.6966785192489624, -36.72099304199219, -128.15724182128906, 0.12810055911540985, 0.4188076853752136, -0.5279847383499146, 20.149999618530273, 5.0, 0.0, 5.516666889190674, 51.9375, 225, 350, -1021, 21, -91, 100, 0, 18689, -29884, 0, 5200, 2064, 0, 156, 0, 26, 60, 0, 0)
43.5316566668, -80.57843833313527, 214057.5, 0.1854749470949173, -30.78032684326172, -136.2560272216797, 0.1337340623140335, 0.5445761680603027, -0.4925086498260498, 20.149999618530273, 5.0, 0.0, 6.972222328186035, 51.9375, 220, 350, -1020, 22, -91, 100, 0, 18567, -29860, 0, 5200, 2064, 0, 156, 0, 26, 60, 0, 0)
43.5316450001, -80.57844833313526, 214057.796875, 1.7979429960250854, -23.896799087524414, -143.59950256347656, 0.16944925487041473, 0.5182575583457947, -0.349365770816803, 20.149999618530273, 5.0, 0.0, 8.041666984558105, 51.9375, 214, 350, -1018, 22, -91, 100, 0, 18421, -29793, 0, 5200, 2064, 0, 156, 0, 26, 60, 0, 0)
43.5316316668, -80.57845999980442, 214058.0, 5.3598856925964355, -17.40666389465332, -150.5113525390625, 0.43047013878822327, 0.4752219319343567, -0.49528437852859497, 20.149999618530273, 5.0, 0.0, 8.966666221618652, 53.125, 206, 352, -1017, 23, -89, 100, 0, 18364, -29778, 0, 5200, 2064, 0, 156, 0, 25, 60, 0, 0)
43.5316083335, -80.57847333314082, 214058.296875, 8.15400505065918, -13.351714134216309, -156.69717407226562, 0.3692718744277954, 0.3729759752750397, -0.28827834129333496, 20.149999618530273, 5.0, 0.0, 9.441666603088379, 53.125, 201, 354, -1015, 23, -88, 100, 0, 18406, -29718, 0, 5200, 2064, 0, 156, 0, 25, 60, 0, 1)
43.5315916668, -80.57847999980731, 214058.5, 8.688040733337402, -10.048262596130371, -160.67681884765625, -0.056028954684734344, -0.024324145168066025, -0.24716994166374207, 20.149999618530273, 5.0, 0.0, 9.672222137451172, 53.125, 195, 356, -101, 24, -88, 100, 0, 18463, -2957, 0, 5200, 2064, 0, 156, 0, 25, 60, 0, 0)
43.5315750001, -80.57848499981034, 214058.703125, 6.391441345214844, -8.785118103027344, -162.69032287597656, -0.20468324422836304, 0.23413220047950745, -0.07706484943628311, 20.149999618530273, 5.0, 0.0, 9.98611068725586, 53.125, 190, 354, -1017, 24, -87, 100, 0, 18324, -29763, 0, 5200, 2064, 0, 156, 0, 25, 60, 0, 0)
43.5314550002, -80.57846999980757, 214059.90625, 29.324159622192383, -7.638386249542236, -173.47537231445312, 0.4911935329437256, -0.018810875713825226, -0.11885766685009003, 20.149999618530273, 5.0, 0.0, 12.502778053283691, 55.0, 165, 0, -96, 26, -87, 100, 0, 164, -2833, 0, 5200, 2064, 0, 156, 0, 26, 60, 0, 1)
43.5314266668, -80.57845999980442, 214100.09375, 34.8480339050293, -8.531923294067383, -176.53204345703125, 0.388715535402298, 0.19459234178066254, -0.1240476444363594, 20.149999618530273, 5.0, 0.0, 15.252778053283691, 58.0625, 162, 0, -96, 27, -88, 100, 0, 194, -2836, 0, 5200, 2064, 0, 156, 0, 26, 60, 0, 1)
43.5314000002, -80.57844833313526, 214100.296875, 39.053367614746094, -8.371503829956055, -179.426025390625, 0.22469668090343475, 0.19001087546348572, -0.19455072283744812, 20.149999618530273, 5.0, 0.0, 14.713889122009277, 58.0625, 161, 0, -96, 27, -88, 100, 0, 202, -2833, 0, 5200, 2064, 0, 156, 0, 26, 60, 0, 0)
43.5313616668, -80.57843666646878, 214100.59375, 40.26821517944336, -10.426457405090332, 177.4248046875, -0.1541648656129837, -0.16052061319351196, -0.08842247724533081, 20.149999618530273, 5.0, 0.0, 14.144444465637207, 58.0625, 159, 358, -97, 28, -88, 100, 0, 18562, -2866, 0, 5200, 2064, 0, 156, 0, 26, 60, 0, 1)
43.5313366668, -80.57843333313552, 214100.796875, 34.46927261352539, -10.87483024597168, 177.01284790039062, -0.5686814785003662, -0.04058557748794556, -0.11367259174585342, 20.149999618530273, 5.0, 0.0, 13.216666221618652, 58.0625, 157, 361, -1015, 29, -88, 100, 0, 18711, -29718, 0, 5200, 2064, 0, 156, 0, 25, 60, 0, 0)
43.5313033335, -80.57841999980714, 214101.09375, 24.896564483642578, -8.7107572555542, 177.2854766845703, -0.7574858665466309, 0.05505503714084625, -0.08220736682415009, 20.149999618530273, 5.0, 0.0, 12.469444274902344, 64.4375, 155, 362, -1017, 29, -87, 100, 0, 18733, -29763, 0, 5200, 2064, 0, 156, 0, 25, 60, 0, 0)
43.5312833335, -80.578409999804, 214101.296875, 14.509652137756348, -6.831208229064941, 176.4331817626953, -0.5874741673469543, 0.2582429349422455, -0.23491773009300232, 20.149999618530273, 5.0, 0.0, 11.844444274902344, 64.4375, 154, 0, -96, 30, -88, 100, 0, 160, -2836, 0, 5200, 2064, 0, 156, 0, 25, 60, 0, 1)
43.5312616669, -80.57840166647111, 214101.5, 10.419210433959961, -7.214906692504883, 174.21109008789062, -0.11969256401062012, 0.03369094058871269, -0.20731349289417267, 20.149999618530273, 5.0, 0.0, 11.366666793823242, 64.4375, 152, 1, -97, 31, -89, 100, 0, 206, -2839, 0, 5200, 2064, 0, 156, 0, 25, 60, 0, 0)
43.5312383335, -80.57838833313484, 214101.703125, 9.465506553649902, -8.04629135131836, 171.31614685058594, -0.04481183737516403, -0.08385021984577179, -0.21434779465198517, 20.149999618530273, 5.0, 0.0, 10.86388874053955, 64.4375, 149, 1, -96, 31, -88, 100, 0, 236, -2836, 0, 5200, 2064, 0, 156, 0, 25, 60, 0, 1)
43.5312050002, -80.57837499980232, 214102.0, 9.676033020019531, -8.41129207611084, 168.79757690429688, -0.006594227626919746, 0.012892336584627628, -0.1339217573404312, 20.149999618530273, 5.0, 0.0, 11.06944465637207, 67.3125, 147, 350, -96, 32, -88, 100, 0, 18081, -2836, 0, 5200, 2064, 0, 156, 0, 25, 60, 0, 0)
43.5311833335, -80.57836166646835, 214102.203125, 9.37317943572998, -6.148935317993164, 167.7538604736328, -0.19320252537727356, 0.4585293233394623, -0.11390829086303711, 20.149999618530273, 5.0, 0.0, 11.333333015441895, 67.3125, 147, 355, -1027, 33, -85, 100, 0, 18308, -30050, 0, 5200, 2064, 0, 156, 0, 25, 60, 0, 0)
43.5311483335, -80.5783383331344, 214102.5, 5.875821590423584, -0.17988744378089905, 166.90994262695312, -0.4263640344142914, 0.6946007609367371, -0.10908102244138718, 20.149999618530273, 5.0, 0.0, 11.48611068725586, 67.3125, 146, 353, -1026, 33, -84, 100, 0, 18102, -30044, 0, 5200, 2064, 0, 156, 0, 25, 60, 0, 0)
43.5310716668, -80.5782750003331, 214103.203125, 6.329352855682373, 29.366252899169922, 171.56097412109375, 0.4036614000797272, 0.35223954916000366, 0.30082273483276367, 20.149999618530273, 5.0, 0.0, 12.588889122009277, 67.25, 142, 1, -96, 35, -81, 100, 0, 648, -2833, 0, 5200, 2064, 0, 156, 0, 25, 60, 0, 0)
43.5310516668, -80.57825500033844, 214103.40625, 7.099894046783447, 34.23099899291992, 177.31849670410156, 0.1725654900074005, 0.20019936561584473, 0.30614861845970154, 20.149999618530273, 5.0, 0.0, 12.822221755981445, 67.25, 140, 0, -96, 36, -81, 100, 0, 696, -2827, 0, 5200, 2064, 0, 156, 0, 25, 60, 0, 1)
43.5310266668, -80.57823333366929, 214103.59375, 6.637489318847656, 40.4587516784668, -174.80416870117188, 0.49364131689071655, 0.34493589401245117, 0.6290750503540039, 20.149999618530273, 5.0, 0.0, 13.375, 67.25, 141, -1, -96, 36, -80, 100, 0, 742, -2818, 0, 5200, 2064, 0, 156, 0, 25, 60, 0, 0)
43.5309833335, -80.57820500033412, 214103.90625, 5.677939414978027, 47.13532257080078, -164.941162109375, 0.22046546638011932, 0.519364058971405, 0.5624280571937561, 20.149999618530273, 5.0, 0.0, 13.86111068725586, 67.25, 142, 0, -97, 37, -80, 100, 0, 948, -2842, 0, 5200, 2064, 0, 156, 0, 25, 60, 0, 0)
43.5309533335, -80.57818666700017, 214104.09375, 3.0189177989959717, 51.07003402709961, -155.2502899169922, 0.2736603021621704, -0.12336316704750061, 0.5415825247764587, 20.149999618530273, 5.0, 0.0, 14.144444465637207, 66.75, 146, 0, -87, 39, -78, 100, 0, 1064, -2552, 0, 5200, 2064, 0, 156, 0, 25, 60, 0, 0)
43.5309066668, -80.57816333370963, 214104.40625, -1.3586117029190063, 49.043800354003906, -147.22608947753906, 0.2349006086587906, -0.2530459761619568, 0.7364768981933594, 20.149999618530273, 5.0, 0.0, 14.341666221618652, 66.75, 153, 350, -84, 41, -84, 100, 0, 18913, -2461, 0, 5200, 2064, 0, 156, 0, 25, 60, 0, 0)
43.5308733335, -80.57815666704313, 214104.59375, -7.301815032958984, 45.41788101196289, -139.75326538085938, 0.3826371133327484, -0.24633856117725372, 0.7308454513549805, 20.149999618530273, 5.0, 0.0, 14.255555152893066, 66.75, 160, -1, -85, 42, -86, 100, 0, 820, -2492, 0, 5200, 2064, 0, 156, 0, 26, 60, 0, 0)
43.5308416668, -80.57815500037638, 214104.796875, -8.325333595275879, 40.33698272705078, -129.0089569091797, 0.7369115352630615, -0.270796000957489, 0.5161880850791931, 20.149999618530273, 5.0, 0.0, 14.149999618530273, 66.75, 167, -350, -83, 46, -89, 100, 0, -17149, -2440, 0, 5200, 2064, 0, 156, 0, 26, 60, 0, 0)
43.5308116669, -80.57815333370988, 214105.0, -5.449851989746094, 34.63051223754883, -118.43852996826172, 0.5689550638198853, -0.3086119592189789, 0.5258520245552063, 20.149999618530273, 5.0, 0.0, 13.88611125946045, 62.125, 174, 0, -88, 48, -89, 100, 0, 648, -2582, 0, 5200, 2064, 0, 156, 0, 26, 60, 0, 0)
43.5307583335, -80.57815000037662, 214105.296875, -1.8237566947937012, 33.27080535888672, -110.3642807006836, 0.4829555153846741, 0.18861520290374756, 0.1410614550113678, 20.149999618530273, 5.0, 0.0, 13.788888931274414, 62.125, 181, 0, -94, 52, -88, 100, 0, 644, -2772, 0, 5200, 2064, 0, 156, 0, 26, 60, 0, 0)
43.5307216669, -80.57815500037638, 214105.5, 3.59584379196167, 34.182132720947266, -105.80654907226562, 0.521217942237854, -0.004778043366968632, -0.014754938893020153, 20.149999618530273, 5.0, 0.0, 13.911110877990723, 62.125, 188, 0, -92, 57, -88, 100, 0, 718, -2706, 0, 5200, 2064, 0, 156, 0, 26, 60, 0, 1)
43.5306916669, -80.57816833366608, 214105.703125, 9.036762237548828, 31.483745574951172, -101.0929183959961, 0.5433983206748962, -0.40775415301322937, 0.16056373715400696, 20.149999618530273, 5.0, 0.0, 14.086111068725586, 62.125, 204, 0, -86, 61, -89, 100, 0, 656, -2519, 0, 5200, 2064, 0, 156, 0, 26, 60, 0, 0)
43.5306516669, -80.57819833366666, 214106.0, 11.689330101013184, 26.858768463134766, -93.80225372314453, 0.43668174743652344, -0.3702261447906494, 0.45155057311058044, 20.149999618530273, 5.0, 0.0, 14.177778244018555, 58.5625, 211, 1, -85, 65, -87, 100, 0, 604, -2516, 0, 5200, 2064, 0, 156, 0, 26, 60, 0, 0)
43.5306300002, -80.57822166699965, 214106.203125, 12.989358901977539, 26.994611740112305, -85.46027374267578, 0.41980332136154175, 0.2939213216304779, 0.38880497217178345, 20.149999618530273, 5.0, 0.0, 13.747221946716309, 58.5625, 218, 349, -97, 70, -88, 100, 0, 18435, -2842, 0, 5200, 2064, 0, 156, 0, 26, 60, 0, 0)
43.5305966669, -80.57825666700519, 214106.5, 16.155838012695312, 31.934459686279297, -79.03775787353516, 0.44655680656433105, 0.27527427673339844, 0.27927523851394653, 20.149999618530273, 5.0, 0.0, 12.497221946716309, 58.5625, 231, 350, -97, 73, -88, 100, 0, 18549, -2845, 0, 5200, 2064, 0, 156, 0, 26, 60, 0, 0)
43.5305816669, -80.57828333366973, 214106.703125, 20.12794303894043, 38.840946197509766, -72.62129974365234, 0.6064519286155701, 0.25189369916915894, 0.2190067023038864, 20.149999618530273, 5.0, 0.0, 12.102777481079102, 58.5625, 235, 350, -97, 76, -88, 100, 0, 18701, -2842, 0, 5200, 2064, 0, 156, 0, 26, 60, 0, 0)
43.5305700002, -80.57830833367188, 214106.90625, 22.674015045166016, 44.419349670410156, -66.08966827392578, 0.35656461119651794, 0.18296407163143158, 0.2694500684738159, 20.149999618530273, 5.0, 0.0, 11.802778244018555, 62.1875, 238, 350, -97, 79, -88, 100, 0, 18831, -2842, 0, 5200, 2064, 0, 156, 0, 26, 60, 0, 0)
43.5305616669, -80.57833166700827, 214107.09375, 23.16884994506836, 47.19264602661133, -59.85909652709961, 0.3689192235469818, 0.0795586034655571, 0.31246140599250793, 20.149999618530273, 5.0, 0.0, 11.05555534362793, 62.1875, 240, 350, -97, 80, -88, 100, 0, 18905, -2845, 0, 5200, 2064, 0, 156, 0, 26, 60, 0, 0)
43.5305516669, -80.57836499980185, 214107.40625, 21.272249221801758, 50.66534423828125, -52.36517333984375, 0.335597962141037, 0.049127161502838135, 0.49966153502464294, 20.149999618530273, 5.0, 0.0, 9.586111068725586, 62.1875, 248, 348, -97, 81, -88, 100, 0, 18858, -2845, 0, 5200, 2064, 0, 156, 0, 26, 60, 0, 1)
43.5305483335, -80.57838499980171, 214107.59375, 16.649311065673828, 49.723655700683594, -45.1074333190918, -0.1844860315322876, -0.48340746760368347, 0.6985846161842346, 20.149999618530273, 5.0, 0.0, 8.69444465637207, 62.1875, 257, 353, -78, 82, -83, 100, 0, 19068, -2301, 0, 5200, 2064, 0, 156, 0, 26, 60, 0, 0)
43.5305466669, -80.57841499980422, 214107.90625, 7.731215476989746, 42.16035079956055, -38.4080924987793, -0.42557114362716675, -0.5341380834579468, 0.7975868582725525, 20.149999618530273, 5.0, 0.0, 7.894444465637207, 62.1875, 270, 353, -75, 82, -83, 100, 0, 18954, -2208, 0, 5200, 2064, 0, 156, 0, 26, 60, 0, 0)
43.5305483335, -80.57843499980214, 214108.09375, -0.9865005016326904, 32.4606819152832, -31.048839569091797, -0.20846685767173767, -0.8127611875534058, 0.7793010473251343, 20.149999618530273, 5.0, 0.0, 7.683333396911621, 67.125, 277, 353, -75, 82, -83, 100, 0, 18752, -2220, 0, 5200, 2064, 0, 156, 0, 26, 60, 0, 0)
43.5305500002, -80.57845333313817, 214108.296875, -6.764542102813721, 22.246145248413086, -24.159780502319336, -0.31838536262512207, -0.5987269282341003, 0.6482954025268555, 20.149999618530273, 5.0, 0.0, 7.441666603088379, 67.125, 282, 353, -76, 82, -84, 100, 0, 18522, -2244, 0, 5200, 2064, 0, 156, 0, 26, 60, 0, 1)
43.5305566669, -80.57847833314057, 214108.59375, -10.336991310119629, 12.545717239379883, -17.003782272338867, -0.06353943049907684, -0.4698317348957062, 0.4627212882041931, 20.149999618530273, 5.0, 0.0, 7.400000095367432, 67.125, 289, 2, -84, 82, -84, 100, 0, 387, -2461, 0, 5200, 2064, 0, 156, 0, 26, 60, 0, 1)
43.5305616669, -80.57849499980996, 214108.796875, -9.36483383178711, 9.996382713317871, -12.237468719482422, 0.4029107093811035, 0.22548598051071167, 0.19969233870506287, 20.149999618530273, 5.0, 0.0, 7.366666793823242, 67.125, 295, 350, -96, 81, -84, 100, 0, 18145, -2833, 0, 5200, 2064, 0, 156, 0, 26, 60, 0, 0)
43.5305716669, -80.57851833313167, 214109.09375, -5.559680461883545, 12.541794776916504, -11.568296432495117, 0.287699818611145, 0.2413521260023117, -0.1146833598613739, 20.149999618530273, 5.0, 0.0, 7.330555438995361, 64.25, 303, 351, -96, 81, -84, 100, 0, 18215, -2836, 0, 5200, 2064, 0, 156, 0, 25, 60, 0, 1)
43.5305750002, -80.57853333313251, 214109.203125, -1.3309911489486694, 15.165904998779297, -12.012792587280273, 0.1145908385515213, 0.2834964692592621, -0.10267622768878937, 20.149999618530273, 5.0, 0.0, 7.333333492279053, 64.25, 308, 351, -96, 79, -84, 100, 0, 18285, -2833, 0, 5200, 2064, 0, 156, 0, 25, 60, 0, 0)
43.5305900002, -80.5785466664655, 214109.5, 2.2019124031066895, 17.72046661376953, -10.80666732788086, 0.41587868332862854, 0.042309798300266266, 0.12406285107135773, 20.149999618530273, 5.0, 0.0, 7.758333206176758, 64.25, 321, 351, -96, 79, -84, 100, 0, 18336, -2833, 0, 5200, 2064, 0, 156, 0, 25, 60, 0, 0)
43.5306000002, -80.57855833313079, 214109.703125, 4.911062717437744, 18.5013484954834, -7.18955135345459, 0.38788723945617676, 0.08583533763885498, 0.3403224050998688, 20.149999618530273, 5.0, 0.0, 7.938889026641846, 64.25, 327, 351, -96, 77, -84, 100, 0, 18366, -2836, 0, 5200, 2064, 0, 156, 0, 25, 60, 0, 0)
43.5306350002, -80.57858166646717, 214110.203125, 6.143307209014893, 21.115867614746094, 5.210646629333496, 0.3153475821018219, 0.03297063708305359, 0.4553109109401703, 20.149999618530273, 5.0, 0.0, 9.072221755981445, 64.875, 341, 352, -95, 74, -84, 100, 0, 18462, -2788, 0, 5200, 2064, 0, 156, 0, 25, 60, 0, 0)
43.5306516669, -80.57858833313658, 214110.40625, 6.122481346130371, 20.91495132446289, 10.466511726379395, 0.2374018281698227, -0.3335851728916168, 0.4780499339103699, 20.149999618530273, 5.0, 0.0, 9.727777481079102, 64.875, 349, 352, -79, 72, -81, 100, 0, 18432, -2313, 0, 5200, 2064, 0, 156, 0, 25, 60, 0, 0)
43.5306800002, -80.57859333313633, 214110.703125, 5.376662731170654, 14.423155784606934, 17.341049194335938, 0.21849754452705383, -0.5547758340835571, 0.5619314908981323, 20.149999618530273, 5.0, 0.0, 10.841666221618652, 64.875, 355, 3, -78, 71, -82, 100, 0, 471, -2301, 0, 5200, 2064, 0, 156, 0, 25, 60, 0, 0)
43.5307000002, -80.57859333313633, 214110.90625, 6.996899604797363, 5.0093302726745605, 23.85873794555664, 0.20385386049747467, -0.7404638528823853, 0.29742828011512756, 20.149999618530273, 5.0, 0.0, 11.655555725097656, 65.0625, 0, 352, -79, 68, -81, 100, 0, 18136, -2319, 0, 5200, 2064, 0, 156, 0, 25, 60, 0, 0)
43.5307333335, -80.57858999980333, 214111.203125, 9.159364700317383, -3.427988290786743, 28.272151947021484, -0.013592716306447983, -0.5114947557449341, 0.1887965351343155, 20.149999618530273, 5.0, 0.0, 12.602777481079102, 65.0625, 6, 3, -82, 66, -82, 100, 0, 253, -2410, 0, 5200, 2064, 0, 156, 0, 25, 60, 0, 0)
43.5307450002, -80.57858666647007, 214111.296875, 11.243986129760742, -6.626187324523926, 28.324094772338867, -0.04772929102182388, -0.006693203002214432, -0.20021049678325653, 20.149999618530273, 5.0, 0.0, 12.88611125946045, 65.0625, 8, 351, -97, 64, -81, 100, 0, 18138, -2845, 0, 5200, 2064, 0, 156, 0, 25, 60, 0, 0)
43.5307800002, -80.57857666646693, 214111.59375, 11.077392578125, -5.3171000480651855, 24.59535026550293, 0.23778274655342102, 0.15644122660160065, -0.29074642062187195, 20.149999618530273, 5.0, 0.0, 13.333333015441895, 65.0625, 14, 352, -97, 61, -81, 100, 0, 18142, -2842, 0, 5200, 2064, 0, 156, 0, 25, 60, 0, 0)
43.5308366668, -80.57855499979777, 214112.09375, 12.006629943847656, -2.3568384647369385, 17.621179580688477, 0.13983599841594696, 0.09452174603939056, -0.01876535266637802, 20.149999618530273, 5.0, 0.0, 13.047222137451172, 66.75, 17, 352, -97, 57, -84, 100, 0, 18102, -2845, 0, 5200, 2064, 0, 156, 0, 25, 60, 0, 0)
43.5308633335, -80.57853666646575, 214112.296875, 12.42491626739502, -0.25803452730178833, 17.85310935974121, 0.1628076136112213, 0.4033651649951935, 0.09662865102291107, 20.149999618530273, 5.0, 0.0, 12.905555725097656, 66.75, 19, 352, -97, 53, -84, 100, 0, 18054, -2839, 0, 5200, 2064, 0, 156, 0, 26, 60, 0, 0)
43.5308883335, -80.5785199997983, 214112.5, 11.597078323364258, 4.348888397216797, 18.739055633544922, -0.030414152890443802, 0.371932715177536, 0.1285342127084732, 20.149999618530273, 5.0, 0.0, 12.847222328186035, 66.75, 19, 358, -1020, 51, -84, 100, 0, 18428, -29845, 0, 5200, 2064, 0, 156, 0, 26, 60, 0, 0)
43.5309250002, -80.57849499980996, 214112.796875, 7.185464382171631, 8.89004898071289, 18.275634765625, -0.010507841594517231, 0.1022796630859375, 0.036483678966760635, 20.149999618530273, 5.0, 0.0, 12.73611068725586, 66.75, 20, 352, -97, 51, -84, 100, 0, 18212, -2842, 0, 5200, 2064, 0, 156, 0, 26, 60, 0, 0)
43.5309483335, -80.57847999980731, 214113.0, 5.200442790985107, 11.416971206665039, 19.582260131835938, 0.21027056872844696, 0.20577172935009003, 0.24683144688606262, 20.149999618530273, 5.0, 0.0, 12.641666412353516, 69.875, 21, 352, -97, 47, -85, 100, 0, 18272, -2839, 0, 5200, 2064, 0, 156, 0, 26, 60, 0, 0)
43.5309833335, -80.57845499980468, 214113.296875, 5.055183410644531, 14.882950782775879, 23.6239013671875, 0.2184964418411255, 0.19033601880073547, 0.42638513445854187, 20.149999618530273, 5.0, 0.0, 12.597222328186035, 69.875, 22, 352, -97, 45, -85, 100, 0, 18332, -2842, 0, 5200, 2064, 0, 156, 0, 26, 60, 0, 0)
43.5310033335, -80.57843833313527, 214113.5, 4.566143035888672, 20.58769416809082, 29.721464157104492, 0.2898600697517395, 0.2534732222557068, 0.5082623362541199, 20.149999618530273, 5.0, 0.0, 12.627778053283691, 69.875, 24, 352, -94, 42, -83, 100, 0, 18462, -2757, 0, 5200, 2064, 0, 156, 0, 26, 60, 0, 0)
43.5310250002, -80.57841999980714, 214113.703125, 3.296281099319458, 22.2059268951416, 36.98344039916992, 0.26876747608184814, -0.22549757361412048, 0.6205205917358398, 20.149999618530273, 5.0, 0.0, 12.891666412353516, 69.875, 27, 352, -86, 41, -83, 100, 0, 18488, -2522, 0, 5200, 2064, 0, 156, 0, 26, 60, 0, 0)
43.5310450002, -80.57839333313458, 214113.90625, 1.065535545349121, 20.056865692138672, 45.010353088378906, -0.11962661892175674, -0.061057500541210175, 0.612611711025238, 20.149999618530273, 5.0, 0.0, 12.855555534362793, 71.0, 29, 352, -85, 40, -83, 100, 0, 18446, -2516, 0, 5200, 2064, 0, 156, 0, 26, 60, 0, 1)
43.5310650002, -80.57838333313508, 214114.09375, -0.8897532224655151, 16.361520767211914, 53.246620178222656, 0.11747632920742035, -0.35029324889183044, 0.6556997895240784, 20.149999618530273, 5.0, 0.0, 12.741666793823242, 71.0, 29, 352, -84, 38, -83, 100, 0, 18382, -2485, 0, 5200, 2064, 0, 156, 0, 26, 60, 0, 0)
43.5310916668, -80.5783483331344, 214114.40625, -1.911584734916687, 11.585618019104004, 61.42845153808594, -0.043564070016145706, -0.1021338403224945, 0.4997471868991852, 20.149999618530273, 5.0, 0.0, 13.297222137451172, 71.0, 35, 352, -84, 36, -83, 100, 0, 18272, -2485, 0, 5200, 2064, 0, 156, 0, 26, 60, 0, 0)
43.5311316668, -80.57828500033635, 214114.90625, 1.4957963228225708, 1.642199993133545, 68.52958679199219, 0.03206249326467514, -0.13186655938625336, 0.03238407149910927, 20.149999618530273, 5.0, 0.0, 13.791666984558105, 66.625, 46, 353, -85, 33, -83, 100, 0, 18106, -2489, 0, 5200, 2064, 0, 156, 0, 26, 60, 0, 0)
43.5311483335, -80.57825666700519, 214115.09375, 2.9255599975585938, -1.8987905979156494, 68.95712280273438, -0.11626683175563812, -0.18833890557289124, 0.024523241445422173, 20.149999618530273, 5.0, 0.0, 14.269444465637207, 66.625, 50, 353, -86, 31, -82, 100, 0, 18104, -2537, 0, 5200, 2064, 0, 156, 0, 26, 60, 0, 0)
43.5311683335, -80.57820833366713, 214115.40625, 3.9366509914398193, -3.703242540359497, 70.63371276855469, 0.1757359653711319, -0.1698562651872635, 0.17125628888607025, 20.149999618530273, 5.0, 0.0, 14.980555534362793, 66.625, 56, 353, -89, 30, -79, 100, 0, 18136, -2621, 0, 5200, 2064, 0, 156, 0, 26, 60, 0, 1)
43.5311783335, -80.57817166699921, 214115.59375, 4.7977213859558105, -7.598789215087891, 71.39765930175781, -0.07826164364814758, -0.45657533407211304, -0.06885898113250732, 20.149999618530273, 5.0, 0.0, 15.38888931274414, 66.625, 59, 353, -87, 28, -77, 100, 0, 18216, -2570, 0, 5200, 2064, 0, 156, 0, 26, 60, 0, 0)
43.5311883335, -80.57813333370723, 214115.796875, 5.589849472045898, -12.476728439331055, 70.40534210205078, 0.09897839277982712, -0.2271566241979599, -0.024341009557247162, 20.149999618530273, 5.0, 0.0, 15.961111068725586, 66.5, 61, 353, -86, 27, -74, 100, 0, 18336, -2537, 0, 5200, 2064, 0, 156, 0, 26, 60, 0, 1)
43.5312016669, -80.57807500037015, 214116.09375, 5.754790782928467, -16.920557022094727, 69.07666778564453, 0.00529193552210927, -0.3857935965061188, -0.10828226804733276, 20.149999618530273, 5.0, 0.0, 16.15833282470703, 66.5, 61, 352, -89, 26, -74, 100, 0, 18372, -2606, 0, 5200, 2064, 0, 156, 0, 26, 60, 0, 0)
43.5312233335, -80.57799500041098, 214116.5, 6.6672587394714355, -19.335838317871094, 64.63309478759766, 0.13602015376091003, -0.16850900650024414, -0.18341317772865295, 20.149999618530273, 5.0, 0.0, 16.422222137451172, 66.5, 61, 352, -92, 22, -72, 100, 0, 18432, -2718, 0, 5200, 2064, 0, 156, 0, 26, 60, 0, 0)
43.5312416669, -80.57793833373628, 214116.796875, 6.908620357513428, -20.863073348999023, 62.088260650634766, 0.06620220094919205, -0.0747050866484642, -0.13518431782722473, 20.149999618530273, 5.0, 0.0, 16.294445037841797, 66.5, 61, 352, -90, 21, -72, 100, 0, 18454, -2658, 0, 5200, 2064, 0, 156, 0, 26, 60, 0, 0)
43.5312566669, -80.57790166707213, 214117.0, 7.123781681060791, -23.201156616210938, 60.07685089111328, 0.11406528204679489, -0.1323912888765335, -0.051803771406412125, 20.149999618530273, 5.0, 0.0, 16.205554962158203, 68.875, 60, 352, -91, 19, -72, 100, 0, 18532, -2676, 0, 5200, 2064, 0, 156, 0, 26, 60, 0, 1)
43.5312766666, -80.57784666706866, 214117.203125, 6.914888858795166, -25.458663940429688, 57.81459045410156, 0.05668707564473152, -0.30040475726127625, -0.20168761909008026, 20.149999618530273, 5.0, 0.0, 16.063888549804688, 68.875, 59, 351, -91, 17, -72, 100, 0, 18506, -2688, 0, 5200, 2064, 0, 156, 0, 26, 60, 0, 0)
43.5312900002, -80.57781000038085, 214117.5, 6.336788654327393, -30.369504928588867, 54.14448165893555, 0.032314419746398926, -0.0749102532863617, -0.26725029945373535, 20.149999618530273, 5.0, 0.0, 15.916666984558105, 68.875, 59, 352, -90, 16, -73, 100, 0, 18646, -2643, 0, 5200, 2064, 0, 156, 0, 26, 60, 0, 0)
43.5313033335, -80.57777500037531, 214117.703125, 6.375962257385254, -32.1141357421875, 50.86027526855469, 0.046733926981687546, -0.05624246224761009, -0.20874683558940887, 20.149999618530273, 5.0, 0.0, 15.672222137451172, 68.875, 59, 351, -90, 14, -73, 100, 0, 18662, -2637, 0, 5200, 2064, 0, 156, 0, 26, 60, 0, 0)
43.5313166669, -80.57772500049663, 214117.90625, 6.036642074584961, -31.67803955078125, 48.20728302001953, -0.03313106298446655, 0.0526423454284668, -0.22575640678405762, 20.149999618530273, 5.0, 0.0, 15.211111068725586, 69.0625, 58, 351, -89, 13, -74, 100, 0, 18605, -2621, 0, 5200, 2064, 0, 156, 0, 26, 60, 0, 0)
43.5313366668, -80.57769333370864, 214118.203125, 2.9540975093841553, -29.226356506347656, 46.27176284790039, -0.2631392180919647, 0.07042345404624939, -0.2301536649465561, 20.149999618530273, 5.0, 0.0, 14.730555534362793, 69.0625, 57, 352, -97, 12, -73, 100, 0, 18632, -2842, 0, 5200, 2064, 0, 156, 0, 26, 60, 0, 0)
43.5313500002, -80.5776650003565, 214118.40625, -3.9326579570770264, -27.474576950073242, 43.19789123535156, -0.284252792596817, -0.08689209073781967, -0.49513131380081177, 20.149999618530273, 5.0, 0.0, 14.074999809265137, 69.0625, 54, 352, -91, 11, -73, 100, 0, 18594, -2688, 0, 5200, 2064, 0, 156, 0, 26, 60, 0, 0)
43.5313750002, -80.57762500035072, 214118.703125, -8.700665473937988, -30.854360580444336, 37.37924575805664, -0.06655174493789673, -0.38517603278160095, -0.49858295917510986, 20.149999618530273, 5.0, 0.0, 13.841666221618652, 69.0625, 52, 352, -89, 10, -73, 100, 0, 18646, -2618, 0, 5200, 2064, 0, 156, 0, 26, 60, 0, 0)
43.5313916668, -80.57759833368667, 214118.90625, -11.36037540435791, -34.32099533081055, 31.738685607910156, 0.004570284858345985, -0.33671486377716064, -0.5105944871902466, 20.149999618530273, 5.0, 0.0, 13.722222328186035, 67.25, 50, 351, -88, 9, -74, 100, 0, 18694, -2597, 0, 5200, 2064, 0, 156, 0, 26, 60, 0, 0)
43.5314083335, -80.57757500035028, 214119.09375, -12.961029052734375, -37.31303405761719, 26.750925064086914, 0.0599844865500927, -0.46662741899490356, -0.2845609188079834, 20.149999618530273, 5.0, 0.0, 13.894444465637207, 67.25, 47, 350, -90, 8, -76, 100, 0, 18689, -2649, 0, 5200, 2064, 0, 156, 0, 26, 60, 0, 0)
43.5314333335, -80.57754666701561, 214119.40625, -13.116539001464844, -40.987022399902344, 22.80506134033203, 0.1701403558254242, -0.19610440731048584, -0.20664002001285553, 20.149999618530273, 5.0, 0.0, 13.06944465637207, 67.25, 42, 350, -90, 7, -77, 100, 0, 18745, -2634, 0, 5200, 2064, 0, 156, 0, 26, 60, 0, 1)
43.5314516668, -80.5775283336814, 214119.59375, -11.728580474853516, -43.45869445800781, 17.606462478637695, 0.49553319811820984, -0.3015564978122711, -0.2553889751434326, 20.149999618530273, 5.0, 0.0, 12.375, 67.25, 39, 1, -95, 6, -79, 100, 0, 946, -2788, 0, 5200, 2064, 0, 156, 0, 26, 60, 0, 0)
43.5314683335, -80.57751333368068, 214119.796875, -11.022602081298828, -47.331260681152344, 9.6914644241333, 0.349575400352478, -0.3037447929382324, -0.5043559670448303, 20.149999618530273, 5.0, 0.0, 11.844444274902344, 65.5, 36, 350, -97, 6, -81, 100, 0, 18877, -2839, 0, 5200, 2064, 0, 156, 0, 26, 60, 0, 0)
43.5315216668, -80.57748833372462, 214120.296875, -13.716651916503906, -44.115013122558594, -9.41665267944336, 0.3718220591545105, -0.10681593418121338, -0.6658505201339722, 20.149999618530273, 5.0, 0.0, 11.108333587646484, 65.5, 28, 0, -97, 5, -84, 100, 0, 924, -2863, 0, 5200, 2064, 0, 156, 0, 26, 60, 0, 0)
43.5315400001, -80.57749000039136, 214120.5, -14.512527465820312, -43.941917419433594, -18.775455474853516, 0.5149192810058594, -0.3227541744709015, -0.4687124490737915, 20.149999618530273, 5.0, 0.0, 10.463889122009277, 65.5, 8, 0, -97, 5, -85, 100, 0, 910, -2839, 0, 5200, 2064, 0, 156, 0, 26, 60, 0, 0)
43.5315716668, -80.5774983337246, 214120.796875, -13.44997787475586, -42.27710723876953, -28.37513542175293, 0.6873270273208618, -0.011241180822253227, -0.3955588936805725, 20.149999618530273, 5.0, 0.0, 10.880555152893066, 65.5, 352, 1, -97, 5, -84, 100, 0, 912, -2848, 0, 5200, 2064, 0, 156, 0, 26, 60, 0, 0)
43.5315916668, -80.5775100003472, 214121.0, -12.031414985656738, -38.0572395324707, -38.64915466308594, 0.46548861265182495, 0.3564646542072296, -0.5580600500106812, 20.149999618530273, 5.0, 0.0, 11.269444465637207, 63.375, 345, 1, -97, 5, -83, 100, 0, 844, -2839, 0, 5200, 2064, 0, 156, 0, 26, 60, 0, 1)
43.5316083335, -80.57752666701465, 214121.203125, -9.229784965515137, -34.55713653564453, -48.84498977661133, 0.48314350843429565, 0.09188429266214371, -0.45658761262893677, 20.149999618530273, 5.0, 0.0, 11.26111125946045, 63.375, 332, 350, -97, 5, -82, 100, 0, 18619, -2839, 0, 5200, 2064, 0, 156, 0, 25, 60, 0, 1)
43.5316266668, -80.57755833368088, 214121.5, -5.398965358734131, -33.09115219116211, -57.420249938964844, 0.42196279764175415, 0.046629250049591064, -0.36541834473609924, 20.149999618530273, 5.0, 0.0, 11.219444274902344, 63.375, 324, 351, -96, 5, -81, 100, 0, 18633, -2812, 0, 5200, 2064, 0, 156, 0, 25, 60, 0, 50)
43.5316333335, -80.57758333368693, 214121.703125, -1.2689154148101807, -33.398582458496094, -64.65298461914062, 0.3360292911529541, -0.05128627270460129, -0.2622555196285248, 20.149999618530273, 5.0, 0.0, 11.213889122009277, 63.375, 313, 352, -93, 6, -81, 100, 0, 18688, -2748, 0, 5200, 2064, 0, 156, 0, 25, 60, 0, 49)
43.5316400001, -80.57760833368133, 214121.90625, 1.5719995498657227, -34.969017028808594, -70.03797912597656, 0.4066754877567291, -0.009000522084534168, -0.18082363903522491, 20.149999618530273, 5.0, 0.0, 10.841666221618652, 61.375, 300, 352, -93, 7, -81, 100, 0, 18724, -2730, 0, 5200, 2064, 0, 156, 0, 25, 60, 0, 2)
43.5316416668, -80.57765333369001, 214122.203125, 3.7669644355773926, -34.18177032470703, -75.40809631347656, 0.34952592849731445, 0.22588762640953064, -0.31963497400283813, 20.149999618530273, 5.0, 0.0, 10.86388874053955, 61.375, 289, 352, -96, 7, -81, 100, 0, 18722, -2812, 0, 5200, 2064, 0, 156, 0, 25, 60, 0, 50)
43.5316383335, -80.57768166704142, 214122.40625, 4.396363258361816, -33.591880798339844, -82.18526458740234, 0.3121302127838135, 0.19349321722984314, -0.47805535793304443, 20.149999618530273, 5.0, 0.0, 10.883333206176758, 61.375, 281, 352, -97, 8, -81, 100, 0, 18704, -2839, 0, 5200, 2064, 0, 156, 0, 26, 60, 0, 50)
43.5316316668, -80.57772333370862, 214122.703125, 3.932403564453125, -33.23141098022461, -91.08562469482422, 0.44002485275268555, 0.05098849534988403, -0.5187713503837585, 20.149999618530273, 5.0, 0.0, 10.658333778381348, 61.375, 269, 352, -99, 9, -81, 100, 0, 18716, -2923, 0, 5200, 2064, 0, 156, 0, 26, 60, 0, 50)
43.5316166668, -80.57777333370905, 214123.09375, 2.8572208881378174, -29.290401458740234, -106.18547821044922, 0.16519278287887573, 0.35122427344322205, -0.5189229249954224, 20.149999618530273, 5.0, 0.0, 10.255555152893066, 61.625, 255, 353, -1018, 10, -80, 100, 0, 18682, -29796, 0, 5200, 2064, 0, 156, 0, 26, 60, 0, 50)
43.5316016668, -80.5778083337141, 214123.40625, 1.9672503471374512, -22.748523712158203, -112.47551727294922, 0.09499106556177139, 0.5699293613433838, -0.5183870792388916, 20.149999618530273, 5.0, 0.0, 10.04444408416748, 61.625, 244, 354, -1018, 11, -80, 100, 0, 18612, -29796, 0, 5200, 2064, 0, 156, 0, 26, 60, 0, 0)
43.5315916668, -80.577828333717, 214123.59375, 0.5768371224403381, -14.573949813842773, -119.01840209960938, -0.18516482412815094, 0.4330402910709381, -0.5036035180091858, 20.149999618530273, 5.0, 0.0, 9.969444274902344, 61.625, 236, 355, -1018, 12, -79, 100, 0, 18488, -29805, 0, 5200, 2064, 0, 156, 0, 26, 60, 0, 50)
43.5315800001, -80.57785833373588, 214123.796875, -0.8628899455070496, -8.989555358886719, -124.03974914550781, 0.07849106192588806, 0.30788546800613403, -0.2430126667022705, 20.149999618530273, 5.0, 0.0, 10.936111450195312, 63.125, 223, 355, -1018, 12, -79, 100, 0, 18387, -29805, 0, 5200, 2064, 0, 156, 0, 26, 60, 0, 0)
43.5315566668, -80.57787500040334, 214124.09375, -2.436501979827881, -3.66739821434021, -126.73486328125, -0.06738462299108505, 0.32474997639656067, -0.12693192064762115, 20.149999618530273, 5.0, 0.0, 11.399999618530273, 63.125, 217, 353, -97, 13, -77, 100, 0, 18178, -2842, 0, 5200, 2064, 0, 156, 0, 26, 60, 0, 0)
43.5315400001, -80.57789166706885, 214124.296875, -1.426298975944519, -0.1679535061120987, -127.85102844238281, 0.10273464769124985, 0.2529691159725189, -0.008858395740389824, 20.149999618530273, 5.0, 0.0, 11.827777862548828, 63.125, 213, 352, -96, 14, -77, 100, 0, 18046, -2830, 0, 5200, 2064, 0, 156, 0, 26, 60, 0, 0)
43.5315216668, -80.57790833373825, 214124.5, 1.8905622959136963, 4.3834662437438965, -126.1451187133789, 0.3366759717464447, -0.10062456130981445, 0.1410738080739975, 20.149999618530273, 5.0, 0.0, 11.94444465637207, 63.125, 212, 352, -92, 14, -77, 100, 0, 18132, -2697, 0, 5200, 2064, 0, 156, 0, 26, 60, 0, 0)
43.5315033335, -80.5779233337414, 214124.703125, 5.248230457305908, 3.7230706214904785, -125.72205352783203, 0.2691299617290497, -0.21519115567207336, -0.10609447956085205, 20.149999618530273, 5.0, 0.0, 12.0, 61.625, 211, 352, -94, 15, -77, 100, 0, 18116, -2751, 0, 5200, 2064, 0, 156, 0, 26, 60, 0, 0)
43.5314750002, -80.57794666706953, 214125.0, 8.535327911376953, 3.614079475402832, -126.06855010986328, 0.1228158175945282, 0.28029149770736694, -0.03674474358558655, 20.149999618530273, 5.0, 0.0, 12.302778244018555, 61.6875, 209, 352, -91, 15, -77, 100, 0, 18118, -2676, 0, 5200, 2064, 0, 156, 0, 26, 60, 0, 0)
43.5314550002, -80.57796166707219, 214125.203125, 10.724018096923828, 2.6462159156799316, -125.53315734863281, -0.08368348330259323, -0.023031271994113922, 0.08388444781303406, 20.149999618530273, 5.0, 0.0, 12.652777671813965, 61.6875, 207, 354, -89, 16, -76, 100, 0, 18178, -2630, 0, 5200, 2064, 0, 156, 0, 26, 60, 0, 2)
43.5313950002, -80.5780033337008, 214125.703125, 8.013983726501465, -1.6546812057495117, -122.74951934814453, -0.2467728704214096, -0.3167240023612976, 0.07106205075979233, 20.149999618530273, 5.0, 0.0, 13.244444847106934, 61.6875, 202, 356, -91, 18, -81, 100, 0, 18269, -2682, 0, 5200, 2064, 0, 156, 0, 26, 60, 0, 0)
43.5313583335, -80.57802500036777, 214125.90625, 6.508728504180908, -6.317601203918457, -123.56353759765625, 0.11618298292160034, -0.4616136848926544, -0.16917939484119415, 20.149999618530273, 5.0, 0.0, 13.300000190734863, 62.375, 200, 352, -90, 19, -81, 100, 0, 18182, -2649, 0, 5200, 2064, 0, 156, 0, 26, 60, 0, 0)
43.5313316669, -80.57803666703573, 214126.203125, 7.209266662597656, -9.539847373962402, -126.07765197753906, -0.10785288363695145, 0.007275839801877737, -0.23239873349666595, 20.149999618530273, 5.0, 0.0, 13.30555534362793, 62.375, 199, 354, -96, 20, -81, 100, 0, 18318, -2827, 0, 5200, 2064, 0, 156, 0, 26, 60, 0, 0)
43.5313066669, -80.578050000368, 214126.40625, 7.4993815422058105, -9.53563404083252, -130.3775177001953, 0.0072939712554216385, 0.16593165695667267, -0.48242661356925964, 20.149999618530273, 5.0, 0.0, 13.300000190734863, 62.375, 197, 352, -97, 21, -81, 100, 0, 18230, -2839, 0, 5200, 2064, 0, 156, 0, 26, 60, 0, 0)
43.5312700002, -80.57806666703739, 214126.703125, 7.021939277648926, -9.500873565673828, -136.78611755371094, 0.04660983756184578, -0.11595650017261505, -0.4064512848854065, 20.149999618530273, 5.0, 0.0, 13.097222328186035, 62.375, 196, 357, -97, 22, -80, 100, 0, 18459, -2842, 0, 5200, 2064, 0, 156, 0, 26, 60, 0, 50)
43.5312433335, -80.5780766670369, 214126.90625, 3.0637753009796143, -8.308549880981445, -141.3357696533203, -0.2646303176879883, 0.19959276914596558, -0.395643949508667, 20.149999618530273, 5.0, 0.0, 13.061111450195312, 63.9375, 194, 355, -100, 24, -80, 100, 0, 18348, -2954, 0, 5200, 2064, 0, 156, 0, 26, 60, 0, 0)
43.5312200002, -80.5780833337068, 214127.09375, -0.20294822752475739, -2.539137840270996, -145.2332305908203, -0.06805399805307388, 0.6205552220344543, -0.23034314811229706, 20.149999618530273, 5.0, 0.0, 12.93055534362793, 63.9375, 191, 356, -1018, 25, -80, 100, 0, 18285, -29790, 0, 5200, 2064, 0, 156, 0, 26, 60, 0, 0)
43.5311566669, -80.57809833370654, 214127.59375, -5.146156311035156, 10.540700912475586, -150.61163330078125, -0.08661215752363205, 0.23588864505290985, -0.08179013431072235, 20.149999618530273, 5.0, 0.0, 12.875, 63.9375, 187, 352, -96, 27, -80, 100, 0, 18258, -2833, 0, 5200, 2064, 0, 156, 0, 26, 60, 0, 0)
43.5311316668, -80.57810166703506, 214127.796875, -5.110610485076904, 13.237926483154297, -150.7885284423828, 0.09392761439085007, 0.10704365372657776, -0.015766609460115433, 20.149999618530273, 5.0, 0.0, 12.975000381469727, 64.1875, 184, 352, -96, 28, -80, 100, 0, 18316, -2830, 0, 5200, 2064, 0, 156, 0, 26, 60, 0, 0)
43.5310966668, -80.57810500036818, 214128.0, -4.062607288360596, 16.342527389526367, -149.15228271484375, 0.19115538895130157, 0.2811129689216614, 0.1269851177930832, 20.149999618530273, 5.0, 0.0, 12.936111450195312, 64.1875, 184, 352, -96, 29, -80, 100, 0, 18372, -2830, 0, 5200, 2064, 0, 156, 0, 26, 60, 0, 1)
43.5310750002, -80.57810666703493, 214128.296875, -3.0293445587158203, 19.46506690979004, -147.13031005859375, 0.2557547688484192, 0.27545875310897827, 0.14345219731330872, 20.149999618530273, 5.0, 0.0, 12.925000190734863, 64.1875, 183, 352, -96, 31, -80, 100, 0, 18436, -2833, 0, 5200, 2064, 0, 156, 0, 26, 60, 0, 0)
43.5310516668, -80.5781083337012, 214128.5, -1.941851258277893, 21.471757888793945, -145.26963806152344, 0.0653347298502922, 0.143286794424057, 0.08169643580913544, 20.149999618530273, 5.0, 0.0, 13.083333015441895, 64.1875, 183, 352, -90, 32, -80, 100, 0, 18462, -2649, 0, 5200, 2064, 0, 156, 0, 26, 60, 0, 0)
43.5310133335, -80.57811166703468, 214128.796875, -0.5871900916099548, 20.391897201538086, -142.63726806640625, 0.34817174077033997, -0.2808570861816406, 0.1797981709241867, 20.149999618530273, 5.0, 0.0, 13.561111450195312, 61.4375, 184, 352, -88, 33, -80, 100, 0, 18452, -2582, 0, 5200, 2064, 0, 156, 0, 26, 60, 0, 0)
43.5309883335, -80.57811500036817, 214129.0, 0.9073669910430908, 19.253173828125, -139.2855987548828, 0.3052619695663452, -0.5094485282897949, 0.3037143349647522, 20.149999618530273, 5.0, 0.0, 14.108333587646484, 61.4375, 185, 352, -86, 35, -81, 100, 0, 18438, -2543, 0, 5200, 2064, 0, 156, 0, 26, 60, 0, 0)
43.5309616668, -80.57812166703758, 214129.203125, 2.1365480422973633, 10.437629699707031, -134.9320831298828, -0.03648752346634865, -0.33805689215660095, 0.33483442664146423, 20.149999618530273, 5.0, 0.0, 14.452777862548828, 61.4375, 188, 352, -86, 37, -79, 100, 0, 18258, -2543, 0, 5200, 2064, 0, 156, 0, 26, 60, 0, 14)
43.5309233335, -80.57813166703757, 214129.5, 3.5230555534362793, 6.130725383758545, -130.49203491210938, 0.13524694740772247, -0.14624130725860596, 0.2275988906621933, 20.149999618530273, 5.0, 0.0, 14.61111068725586, 61.4375, 190, 352, -87, 38, -79, 100, 0, 18192, -2564, 0, 5200, 2064, 0, 156, 0, 26, 60, 0, 0)
43.5309000002, -80.57813833370697, 214129.703125, 5.3492279052734375, 3.649170160293579, -129.4410858154297, 0.10498032718896866, -0.11539047956466675, -0.1410527378320694, 20.149999618530273, 5.0, 0.0, 14.577777862548828, 61.4375, 191, 352, -97, 41, -79, 100, 0, 18114, -2839, 0, 5200, 2064, 0, 156, 0, 26, 60, 0, 50)
43.5308516668, -80.57815833304946, 214130.09375, 8.547650337219238, 1.5958006381988525, -138.50474548339844, 0.20460611581802368, -0.1640946865081787, -0.3663325607776642, 20.149999618530273, 5.0, 0.0, 13.894444465637207, 60.5, 192, 352, -96, 45, -79, 100, 0, 18070, -2833, 0, 5200, 2064, 0, 156, 0, 26, 60, 0, 0)
43.5308166669, -80.57816666699946, 214130.40625, 9.913341522216797, 3.618274211883545, -141.90728759765625, 0.18843162059783936, 0.25574755668640137, -0.10634711384773254, 20.149999618530273, 5.0, 0.0, 13.516666412353516, 60.5, 192, 352, -96, 47, -79, 100, 0, 18114, -2833, 0, 5200, 2064, 0, 156, 0, 26, 60, 0, 50)
43.5307700002, -80.57817666699897, 214130.796875, 5.799510955810547, 4.595151901245117, -143.3859100341797, -0.2486352026462555, 0.2551132142543793, -0.004852990619838238, 20.149999618530273, 5.0, 0.0, 12.891666412353516, 62.5, 189, 352, -93, 53, -79, 100, 0, 18146, -2724, 0, 5200, 2064, 0, 156, 0, 26, 60, 0, 0)
43.5307366669, -80.57818333366691, 214131.09375, 3.978750228881836, 5.171340465545654, -142.52008056640625, -0.22570852935314178, 0.09881003946065903, 0.061920907348394394, 20.149999618530273, 5.0, 0.0, 12.538888931274414, 62.5, 188, 356, -95, 55, -79, 100, 0, 18339, -2794, 0, 5200, 2064, 0, 156, 0, 26, 60, 0, 0)
43.5307150002, -80.57818500033355, 214131.296875, 1.4047789573669434, 5.127599239349365, -141.6112518310547, -0.36187994480133057, 0.035532306879758835, 0.024388901889324188, 20.149999618530273, 5.0, 0.0, 12.394444465637207, 62.5, 187, 354, -94, 59, -79, 100, 0, 18246, -2775, 0, 5200, 2064, 0, 156, 0, 26, 60, 0, 0)
